zip_code,latitude_centroid,longitude_centroid,city,state_abbr,state_name,zcta,parent_zcta,population,density,county_fips,county_name,timezone
601,18.18027,-66.75266,Adjuntas,PR,Puerto Rico,True,,16773.0,100.5,72001,Adjuntas,America/Puerto_Rico
602,18.36075,-67.17541,Aguada,PR,Puerto Rico,True,,37083.0,472.1,72003,Aguada,America/Puerto_Rico
603,18.45744,-67.12225,Aguadilla,PR,Puerto Rico,True,,45652.0,513.2,72005,Aguadilla,America/Puerto_Rico
606,18.16585,-66.93716,Maricao,PR,Puerto Rico,True,,6231.0,54.3,72093,Maricao,America/Puerto_Rico
610,18.2911,-67.12243,Anasco,PR,Puerto Rico,True,,26502.0,275.7,72011,Añasco,America/Puerto_Rico
611,18.27698,-66.80688,Angeles,PR,Puerto Rico,True,,,,72141,Utuado,America/Puerto_Rico
612,18.41283,-66.7051,Arecibo,PR,Puerto Rico,True,,58771.0,298.0,72013,Arecibo,America/Puerto_Rico
616,18.41878,-66.6679,Bajadero,PR,Puerto Rico,True,,9688.0,343.7,72013,Arecibo,America/Puerto_Rico
617,18.44598,-66.56006,Barceloneta,PR,Puerto Rico,True,,23771.0,500.0,72017,Barceloneta,America/Puerto_Rico
622,17.98892,-67.1566,Boqueron,PR,Puerto Rico,True,,6505.0,80.6,72023,Cabo Rojo,America/Puerto_Rico
623,18.08429,-67.15336,Cabo Rojo,PR,Puerto Rico,True,,41472.0,408.5,72023,Cabo Rojo,America/Puerto_Rico
624,18.05905,-66.71932,Penuelas,PR,Puerto Rico,True,,21031.0,172.9,72111,Peñuelas,America/Puerto_Rico
627,18.41905,-66.86037,Camuy,PR,Puerto Rico,True,,31066.0,258.7,72027,Camuy,America/Puerto_Rico
631,18.1852,-66.83169,Castaner,PR,Puerto Rico,True,,1481.0,182.9,72081,Lares,America/Puerto_Rico
636,18.16354,-67.08014,Rosario,PR,Puerto Rico,True,,,,72125,San Germán,America/Puerto_Rico
637,18.081,-66.94659,Sabana Grande,PR,Puerto Rico,True,,21957.0,241.0,72121,Sabana Grande,America/Puerto_Rico
638,18.28462,-66.5137,Ciales,PR,Puerto Rico,True,,16018.0,86.6,72039,Ciales,America/Puerto_Rico
641,18.26742,-66.70212,Utuado,PR,Puerto Rico,True,,26383.0,121.1,72141,Utuado,America/Puerto_Rico
646,18.43251,-66.28429,Dorado,PR,Puerto Rico,True,,36538.0,670.1,72051,Dorado,America/Puerto_Rico
647,17.96667,-66.94266,Ensenada,PR,Puerto Rico,True,,5708.0,139.4,72055,Guánica,America/Puerto_Rico
650,18.34487,-66.58347,Florida,PR,Puerto Rico,True,,13869.0,168.8,72054,Florida,America/Puerto_Rico
652,18.45614,-66.60194,Garrochales,PR,Puerto Rico,True,,3624.0,217.2,72013,Arecibo,America/Puerto_Rico
653,17.99413,-66.90266,Guanica,PR,Puerto Rico,True,,10117.0,176.9,72055,Guánica,America/Puerto_Rico
656,18.04186,-66.79123,Guayanilla,PR,Puerto Rico,True,,17984.0,164.8,72059,Guayanilla,America/Puerto_Rico
659,18.41036,-66.79691,Hatillo,PR,Puerto Rico,True,,39561.0,372.0,72065,Hatillo,America/Puerto_Rico
660,18.13412,-67.11399,Hormigueros,PR,Puerto Rico,True,,15731.0,536.6,72067,Hormigueros,America/Puerto_Rico
662,18.46622,-67.01508,Isabela,PR,Puerto Rico,True,,39017.0,365.0,72071,Isabela,America/Puerto_Rico
664,18.21064,-66.59066,Jayuya,PR,Puerto Rico,True,,14405.0,118.6,72073,Jayuya,America/Puerto_Rico
667,18.01246,-67.0417,Lajas,PR,Puerto Rico,True,,22721.0,145.7,72079,Lajas,America/Puerto_Rico
669,18.27019,-66.86727,Lares,PR,Puerto Rico,True,,24022.0,144.7,72081,Lares,America/Puerto_Rico
670,18.23782,-66.98852,Las Marias,PR,Puerto Rico,True,,8051.0,66.8,72083,Las Marías,America/Puerto_Rico
674,18.42229,-66.4891,Manati,PR,Puerto Rico,True,,38218.0,339.6,72091,Manatí,America/Puerto_Rico
676,18.37897,-67.08098,Moca,PR,Puerto Rico,True,,35621.0,281.5,72099,Moca,America/Puerto_Rico
677,18.33535,-67.23155,Rincon,PR,Puerto Rico,True,,13949.0,369.7,72117,Rincón,America/Puerto_Rico
678,18.42949,-66.93016,Quebradillas,PR,Puerto Rico,True,,24997.0,331.2,72115,Quebradillas,America/Puerto_Rico
680,18.16307,-67.36122,Mayaguez,PR,Puerto Rico,True,,44904.0,269.6,72097,Mayagüez,America/Puerto_Rico
682,18.22415,-67.15309,Mayaguez,PR,Puerto Rico,True,,30212.0,715.2,72097,Mayagüez,America/Puerto_Rico
683,18.10926,-67.03803,San German,PR,Puerto Rico,True,,28710.0,224.9,72125,San Germán,America/Puerto_Rico
685,18.33656,-66.97518,San Sebastian,PR,Puerto Rico,True,,36546.0,179.3,72131,San Sebastián,America/Puerto_Rico
687,18.31707,-66.42029,Morovis,PR,Puerto Rico,True,,30652.0,304.5,72101,Morovis,America/Puerto_Rico
688,18.3807,-66.62496,Sabana Hoyos,PR,Puerto Rico,True,,11355.0,134.9,72013,Arecibo,America/Puerto_Rico
690,18.49363,-67.09734,San Antonio,PR,Puerto Rico,True,,5900.0,1007.5,72005,Aguadilla,America/Puerto_Rico
692,18.40905,-66.33768,Vega Alta,PR,Puerto Rico,True,,34857.0,507.3,72143,Vega Alta,America/Puerto_Rico
693,18.42633,-66.39811,Vega Baja,PR,Puerto Rico,True,,52220.0,454.0,72145,Vega Baja,America/Puerto_Rico
694,18.48327,-66.39269,Vega Baja,PR,Puerto Rico,True,,32.0,15.5,72145,Vega Baja,America/Puerto_Rico
698,18.07274,-66.85519,Yauco,PR,Puerto Rico,True,,34449.0,212.3,72153,Yauco,America/Puerto_Rico
703,18.24739,-66.13143,Aguas Buenas,PR,Puerto Rico,True,,25619.0,318.9,72007,Aguas Buenas,America/Puerto_Rico
704,17.97442,-66.22888,Aguirre,PR,Puerto Rico,True,,7641.0,327.9,72123,Salinas,America/Puerto_Rico
705,18.1294,-66.26653,Aibonito,PR,Puerto Rico,True,,22289.0,283.0,72009,Aibonito,America/Puerto_Rico
707,18.01752,-65.92127,Maunabo,PR,Puerto Rico,True,,10514.0,194.0,72095,Maunabo,America/Puerto_Rico
714,17.9981,-66.05635,Arroyo,PR,Puerto Rico,True,,17413.0,448.1,72015,Arroyo,America/Puerto_Rico
715,17.99738,-66.56104,Mercedita,PR,Puerto Rico,True,,2846.0,86.5,72113,Ponce,America/Puerto_Rico
716,17.99942,-66.59868,Ponce,PR,Puerto Rico,True,,26433.0,1177.4,72113,Ponce,America/Puerto_Rico
717,18.00272,-66.61146,Ponce,PR,Puerto Rico,True,,15115.0,2459.5,72113,Ponce,America/Puerto_Rico
718,18.23145,-65.76067,Naguabo,PR,Puerto Rico,True,,25543.0,208.9,72103,Naguabo,America/Puerto_Rico
719,18.28879,-66.25316,Naranjito,PR,Puerto Rico,True,,28048.0,383.9,72105,Naranjito,America/Puerto_Rico
720,18.21559,-66.42421,Orocovis,PR,Puerto Rico,True,,20387.0,140.2,72107,Orocovis,America/Puerto_Rico
723,18.03139,-66.01122,Patillas,PR,Puerto Rico,True,,16645.0,139.7,72109,Patillas,America/Puerto_Rico
725,18.22052,-66.03962,Caguas,PR,Puerto Rico,True,,79395.0,741.1,72025,Caguas,America/Puerto_Rico
727,18.21142,-66.07374,Caguas,PR,Puerto Rico,True,,51772.0,885.9,72025,Caguas,America/Puerto_Rico
728,18.00697,-66.65995,Ponce,PR,Puerto Rico,True,,39204.0,983.1,72113,Ponce,America/Puerto_Rico
729,18.33524,-65.88677,Canovanas,PR,Puerto Rico,True,,50721.0,547.7,72029,Canóvanas,America/Puerto_Rico
730,18.03256,-66.61384,Ponce,PR,Puerto Rico,True,,29075.0,1691.3,72113,Ponce,America/Puerto_Rico
731,18.09914,-66.63279,Ponce,PR,Puerto Rico,True,,12108.0,95.5,72113,Ponce,America/Puerto_Rico
735,18.2525,-65.67534,Ceiba,PR,Puerto Rico,True,,11593.0,163.5,72037,Ceiba,America/Puerto_Rico
736,18.10736,-66.14994,Cayey,PR,Puerto Rico,True,,45773.0,321.9,72035,Cayey,America/Puerto_Rico
738,18.31793,-65.66793,Fajardo,PR,Puerto Rico,True,,28329.0,369.3,72053,Fajardo,America/Puerto_Rico
739,18.17543,-66.16198,Cidra,PR,Puerto Rico,True,,35801.0,449.2,72041,Cidra,America/Puerto_Rico
740,18.33251,-65.63419,Puerto Real,PR,Puerto Rico,True,,1934.0,1788.4,72053,Fajardo,America/Puerto_Rico
741,18.16569,-65.75506,Punta Santiago,PR,Puerto Rico,True,,3911.0,663.3,72069,Humacao,America/Puerto_Rico
745,18.3466,-65.81382,Rio Grande,PR,Puerto Rico,True,,49472.0,314.4,72119,Río Grande,America/Puerto_Rico
751,18.01205,-66.25871,Salinas,PR,Puerto Rico,True,,20662.0,131.4,72123,Salinas,America/Puerto_Rico
754,18.1447,-65.97565,San Lorenzo,PR,Puerto Rico,True,,36309.0,280.4,72129,San Lorenzo,America/Puerto_Rico
757,17.9933,-66.39056,Santa Isabel,PR,Puerto Rico,True,,21474.0,255.6,72133,Santa Isabel,America/Puerto_Rico
765,18.12365,-65.43013,Vieques,PR,Puerto Rico,True,,8402.0,68.6,72147,Vieques,America/Puerto_Rico
766,18.13039,-66.4757,Villalba,PR,Puerto Rico,True,,22187.0,224.4,72149,Villalba,America/Puerto_Rico
767,18.07033,-65.89618,Yabucoa,PR,Puerto Rico,True,,32867.0,230.0,72151,Yabucoa,America/Puerto_Rico
769,18.09459,-66.3607,Coamo,PR,Puerto Rico,True,,38500.0,192.9,72043,Coamo,America/Puerto_Rico
771,18.18797,-65.86916,Las Piedras,PR,Puerto Rico,True,,36388.0,418.1,72085,Las Piedras,America/Puerto_Rico
772,18.43048,-65.90377,Loiza,PR,Puerto Rico,True,,18919.0,447.0,72087,Loíza,America/Puerto_Rico
773,18.34073,-65.72756,Luquillo,PR,Puerto Rico,True,,17924.0,287.2,72089,Luquillo,America/Puerto_Rico
775,18.31387,-65.28618,Culebra,PR,Puerto Rico,True,,1326.0,44.0,72049,Culebra,America/Puerto_Rico
777,18.22365,-65.90904,Juncos,PR,Puerto Rico,True,,39580.0,569.1,72077,Juncos,America/Puerto_Rico
778,18.26319,-65.97938,Gurabo,PR,Puerto Rico,True,,46720.0,611.0,72063,Gurabo,America/Puerto_Rico
780,18.09998,-66.57032,Coto Laurel,PR,Puerto Rico,True,,10887.0,219.7,72113,Ponce,America/Puerto_Rico
782,18.22501,-66.22452,Comerio,PR,Puerto Rico,True,,17310.0,238.9,72045,Comerío,America/Puerto_Rico
783,18.30348,-66.32851,Corozal,PR,Puerto Rico,True,,32372.0,296.8,72047,Corozal,America/Puerto_Rico
784,18.00558,-66.13651,Guayama,PR,Puerto Rico,True,,38894.0,225.0,72057,Guayama,America/Puerto_Rico
786,18.1357,-66.22881,La Plata,PR,Puerto Rico,True,,,,72009,Aibonito,America/Puerto_Rico
791,18.14391,-65.81398,Humacao,PR,Puerto Rico,True,,47675.0,431.7,72069,Humacao,America/Puerto_Rico
794,18.19934,-66.31179,Barranquitas,PR,Puerto Rico,True,,28088.0,316.0,72019,Barranquitas,America/Puerto_Rico
795,18.05128,-66.49485,Juana Diaz,PR,Puerto Rico,True,,43475.0,281.0,72075,Juana Díaz,America/Puerto_Rico
802,18.34349,-64.9287,St Thomas,VI,Virgin Islands,True,,,,78030,St. Thomas,America/St_Thomas
820,17.7388,-64.70695,Christiansted,VI,Virgin Islands,True,,,,78010,St. Croix,America/St_Thomas
830,18.33857,-64.73802,St John,VI,Virgin Islands,True,,,,78020,St. John,America/St_Thomas
840,17.72649,-64.84717,Frederiksted,VI,Virgin Islands,True,,,,78010,St. Croix,America/St_Thomas
850,17.72763,-64.79122,Kingshill,VI,Virgin Islands,True,,,,78010,St. Croix,America/St_Thomas
851,17.74757,-64.78737,Kingshill,VI,Virgin Islands,True,,,,78010,St. Croix,America/St_Thomas
901,18.46478,-66.10277,San Juan,PR,Puerto Rico,True,,7438.0,2830.2,72127,San Juan,America/Puerto_Rico
906,18.46446,-66.09499,San Juan,PR,Puerto Rico,True,,178.0,21583.6,72127,San Juan,America/Puerto_Rico
907,18.45287,-66.08381,San Juan,PR,Puerto Rico,True,,15641.0,2955.8,72127,San Juan,America/Puerto_Rico
909,18.44131,-66.06866,San Juan,PR,Puerto Rico,True,,4855.0,2871.2,72127,San Juan,America/Puerto_Rico
911,18.45133,-66.05636,San Juan,PR,Puerto Rico,True,,7157.0,5806.9,72127,San Juan,America/Puerto_Rico
912,18.44503,-66.05995,San Juan,PR,Puerto Rico,True,,5868.0,6109.4,72127,San Juan,America/Puerto_Rico
913,18.45024,-66.04275,San Juan,PR,Puerto Rico,True,,7225.0,8610.5,72127,San Juan,America/Puerto_Rico
915,18.43673,-66.04576,San Juan,PR,Puerto Rico,True,,24079.0,6632.4,72127,San Juan,America/Puerto_Rico
917,18.4208,-66.04989,San Juan,PR,Puerto Rico,True,,17836.0,5044.0,72127,San Juan,America/Puerto_Rico
918,18.42139,-66.06774,San Juan,PR,Puerto Rico,True,,14902.0,2132.7,72127,San Juan,America/Puerto_Rico
920,18.41904,-66.09023,San Juan,PR,Puerto Rico,True,,16157.0,1728.2,72127,San Juan,America/Puerto_Rico
921,18.39206,-66.0871,San Juan,PR,Puerto Rico,True,,30663.0,3857.8,72127,San Juan,America/Puerto_Rico
923,18.41146,-66.03715,San Juan,PR,Puerto Rico,True,,23811.0,4573.9,72127,San Juan,America/Puerto_Rico
924,18.39987,-66.01344,San Juan,PR,Puerto Rico,True,,46690.0,3865.8,72127,San Juan,America/Puerto_Rico
925,18.40028,-66.05058,San Juan,PR,Puerto Rico,True,,6365.0,5513.7,72127,San Juan,America/Puerto_Rico
926,18.34691,-66.05434,San Juan,PR,Puerto Rico,True,,89327.0,1485.8,72127,San Juan,America/Puerto_Rico
927,18.38884,-66.07149,San Juan,PR,Puerto Rico,True,,13490.0,2149.7,72127,San Juan,America/Puerto_Rico
934,18.41372,-66.11998,Fort Buchanan,PR,Puerto Rico,True,,114.0,31.0,72061,Guaynabo,America/Puerto_Rico
949,18.43166,-66.21349,Toa Baja,PR,Puerto Rico,True,,71371.0,1339.0,72137,Toa Baja,America/Puerto_Rico
950,18.46201,-66.23917,Toa Baja,PR,Puerto Rico,True,,0.0,0.0,72051,Dorado,America/Puerto_Rico
951,18.43175,-66.25628,Toa Baja,PR,Puerto Rico,True,,0.0,0.0,72137,Toa Baja,America/Puerto_Rico
952,18.42874,-66.18897,Sabana Seca,PR,Puerto Rico,True,,7324.0,1275.4,72137,Toa Baja,America/Puerto_Rico
953,18.36319,-66.24764,Toa Alta,PR,Puerto Rico,True,,70997.0,1027.1,72135,Toa Alta,America/Puerto_Rico
956,18.32121,-66.17185,Bayamon,PR,Puerto Rico,True,,60554.0,852.6,72021,Bayamón,America/Puerto_Rico
957,18.36696,-66.18857,Bayamon,PR,Puerto Rico,True,,37977.0,3377.8,72021,Bayamón,America/Puerto_Rico
959,18.3852,-66.15583,Bayamon,PR,Puerto Rico,True,,46116.0,2922.2,72021,Bayamón,America/Puerto_Rico
960,18.41674,-66.14365,Bayamon,PR,Puerto Rico,True,,1793.0,493.6,72021,Bayamón,America/Puerto_Rico
961,18.40987,-66.16415,Bayamon,PR,Puerto Rico,True,,28638.0,2073.3,72021,Bayamón,America/Puerto_Rico
962,18.43514,-66.13949,Catano,PR,Puerto Rico,True,,18274.0,1465.0,72033,Cataño,America/Puerto_Rico
965,18.42853,-66.11175,Guaynabo,PR,Puerto Rico,True,,6901.0,2943.6,72061,Guaynabo,America/Puerto_Rico
966,18.39784,-66.11394,Guaynabo,PR,Puerto Rico,True,,15139.0,2319.4,72061,Guaynabo,America/Puerto_Rico
968,18.40609,-66.10123,Guaynabo,PR,Puerto Rico,True,,3603.0,3051.3,72061,Guaynabo,America/Puerto_Rico
969,18.36696,-66.11,Guaynabo,PR,Puerto Rico,True,,40402.0,3096.3,72061,Guaynabo,America/Puerto_Rico
971,18.32067,-66.11751,Guaynabo,PR,Puerto Rico,True,,25443.0,613.0,72061,Guaynabo,America/Puerto_Rico
976,18.33903,-65.99286,Trujillo Alto,PR,Puerto Rico,True,,57297.0,1268.8,72139,Trujillo Alto,America/Puerto_Rico
979,18.43734,-66.0089,Carolina,PR,Puerto Rico,True,,17022.0,1690.1,72031,Carolina,America/Puerto_Rico
982,18.40961,-65.99143,Carolina,PR,Puerto Rico,True,,13402.0,3586.8,72031,Carolina,America/Puerto_Rico
983,18.41788,-65.98104,Carolina,PR,Puerto Rico,True,,32735.0,2924.8,72031,Carolina,America/Puerto_Rico
985,18.40628,-65.94767,Carolina,PR,Puerto Rico,True,,31388.0,1312.3,72031,Carolina,America/Puerto_Rico
987,18.34115,-65.94257,Carolina,PR,Puerto Rico,True,,52270.0,778.3,72031,Carolina,America/Puerto_Rico
1001,42.06262,-72.62521,Agawam,MA,Massachusetts,True,,16064.0,549.2,25013,Hampden,America/New_York
1002,42.37633,-72.46462,Amherst,MA,Massachusetts,True,,30099.0,218.2,25015,Hampshire,America/New_York
1003,42.39135,-72.52327,Amherst,MA,Massachusetts,True,,11588.0,5564.0,25015,Hampshire,America/New_York
1005,42.42117,-72.10655,Barre,MA,Massachusetts,True,,5166.0,46.2,25027,Worcester,America/New_York
1007,42.28163,-72.40009,Belchertown,MA,Massachusetts,True,,15080.0,106.1,25015,Hampshire,America/New_York
1008,42.18234,-72.95819,Blandford,MA,Massachusetts,True,,1116.0,7.0,25013,Hampden,America/New_York
1009,42.21133,-72.34189,Bondsville,MA,Massachusetts,True,,649.0,359.3,25013,Hampden,America/New_York
1010,42.12904,-72.20597,Brimfield,MA,Massachusetts,True,,3663.0,40.1,25013,Hampden,America/New_York
1011,42.30233,-72.96448,Chester,MA,Massachusetts,True,,1486.0,17.5,25013,Hampden,America/New_York
1012,42.38495,-72.84675,Chesterfield,MA,Massachusetts,True,,595.0,19.0,25015,Hampshire,America/New_York
1013,42.16059,-72.60788,Chicopee,MA,Massachusetts,True,,22739.0,1551.2,25013,Hampden,America/New_York
1020,42.17618,-72.56538,Chicopee,MA,Massachusetts,True,,30249.0,937.3,25013,Hampden,America/New_York
1022,42.19721,-72.54249,Chicopee,MA,Massachusetts,True,,2203.0,176.7,25013,Hampden,America/New_York
1026,42.46858,-72.92296,Cummington,MA,Massachusetts,True,,1030.0,14.2,25015,Hampshire,America/New_York
1027,42.29506,-72.74303,Easthampton,MA,Massachusetts,True,,17641.0,167.8,25015,Hampshire,America/New_York
1028,42.05967,-72.49899,East Longmeadow,MA,Massachusetts,True,,16215.0,484.5,25013,Hampden,America/New_York
1029,42.19402,-73.05067,East Otis,MA,Massachusetts,True,,572.0,22.2,25003,Berkshire,America/New_York
1030,42.06869,-72.67967,Feeding Hills,MA,Massachusetts,True,,12563.0,403.2,25013,Hampden,America/New_York
1031,42.32782,-72.19191,Gilbertville,MA,Massachusetts,True,,1436.0,82.3,25027,Worcester,America/New_York
1032,42.45313,-72.81965,Goshen,MA,Massachusetts,True,,482.0,19.3,25015,Hampshire,America/New_York
1033,42.26082,-72.50361,Granby,MA,Massachusetts,True,,6310.0,87.6,25015,Hampshire,America/New_York
1034,42.0826,-72.95611,Granville,MA,Massachusetts,True,,2115.0,12.1,25013,Hampden,America/New_York
1035,42.35563,-72.5692,Hadley,MA,Massachusetts,True,,5328.0,89.1,25015,Hampshire,America/New_York
1036,42.0638,-72.4157,Hampden,MA,Massachusetts,True,,5174.0,101.9,25013,Hampden,America/New_York
1037,42.37063,-72.19466,Hardwick,MA,Massachusetts,True,,642.0,13.3,25027,Worcester,America/New_York
1038,42.38466,-72.60559,Hatfield,MA,Massachusetts,True,,2653.0,111.1,25015,Hampshire,America/New_York
1039,42.41049,-72.69188,Haydenville,MA,Massachusetts,True,,1368.0,32.0,25015,Hampshire,America/New_York
1040,42.21251,-72.64109,Holyoke,MA,Massachusetts,True,,40161.0,732.6,25013,Hampden,America/New_York
1050,42.29092,-72.87526,Huntington,MA,Massachusetts,True,,2454.0,22.9,25015,Hampshire,America/New_York
1053,42.35205,-72.71032,Leeds,MA,Massachusetts,True,,1850.0,124.2,25015,Hampshire,America/New_York
1054,42.47381,-72.48768,Leverett,MA,Massachusetts,True,,1875.0,31.6,25011,Franklin,America/New_York
1056,42.19211,-72.45805,Ludlow,MA,Massachusetts,True,,21223.0,301.3,25013,Hampden,America/New_York
1057,42.09118,-72.32392,Monson,MA,Massachusetts,True,,8778.0,76.1,25013,Hampden,America/New_York
1060,42.32218,-72.63126,Northampton,MA,Massachusetts,True,,16386.0,582.1,25015,Hampshire,America/New_York
1062,42.32146,-72.69244,Florence,MA,Massachusetts,True,,9693.0,214.5,25015,Hampshire,America/New_York
1063,42.31962,-72.63951,Northampton,MA,Massachusetts,True,,623.0,2722.0,25015,Hampshire,America/New_York
1066,42.40742,-72.64032,North Hatfield,MA,Massachusetts,True,,30.0,9.2,25015,Hampshire,America/New_York
1068,42.35125,-72.04776,Oakham,MA,Massachusetts,True,,1636.0,29.1,25027,Worcester,America/New_York
1069,42.18798,-72.30578,Palmer,MA,Massachusetts,True,,8716.0,119.9,25013,Hampden,America/New_York
1070,42.51958,-72.92504,Plainfield,MA,Massachusetts,True,,679.0,13.2,25015,Hampshire,America/New_York
1071,42.16029,-72.8598,Russell,MA,Massachusetts,True,,1392.0,34.2,25013,Hampden,America/New_York
1072,42.46327,-72.41893,Shutesbury,MA,Massachusetts,True,,1541.0,31.2,25011,Franklin,America/New_York
1073,42.23084,-72.73856,Southampton,MA,Massachusetts,True,,6169.0,84.6,25015,Hampshire,America/New_York
1074,42.3837,-72.10021,South Barre,MA,Massachusetts,True,,396.0,589.6,25027,Worcester,America/New_York
1075,42.25672,-72.57928,South Hadley,MA,Massachusetts,True,,17715.0,386.0,25015,Hampshire,America/New_York
1077,42.05441,-72.77851,Southwick,MA,Massachusetts,True,,9722.0,121.7,25013,Hampden,America/New_York
1079,42.18508,-72.33406,Thorndike,MA,Massachusetts,True,,515.0,123.7,25013,Hampden,America/New_York
1080,42.18228,-72.36515,Three Rivers,MA,Massachusetts,True,,2419.0,560.9,25013,Hampden,America/New_York
1081,42.06232,-72.23085,Wales,MA,Massachusetts,True,,1937.0,51.7,25013,Hampden,America/New_York
1082,42.29816,-72.27676,Ware,MA,Massachusetts,True,,10341.0,84.9,25015,Hampshire,America/New_York
1083,42.20652,-72.19906,Warren,MA,Massachusetts,True,,3125.0,94.6,25027,Worcester,America/New_York
1084,42.38589,-72.88165,West Chesterfield,MA,Massachusetts,True,,165.0,7.6,25015,Hampshire,America/New_York
1085,42.15375,-72.76961,Westfield,MA,Massachusetts,True,,41758.0,269.9,25013,Hampden,America/New_York
1088,42.38981,-72.6465,West Hatfield,MA,Massachusetts,True,,588.0,43.2,25015,Hampshire,America/New_York
1089,42.12532,-72.65025,West Springfield,MA,Massachusetts,True,,28527.0,658.3,25013,Hampden,America/New_York
1092,42.20008,-72.23715,West Warren,MA,Massachusetts,True,,1200.0,68.9,25027,Worcester,America/New_York
1093,42.44335,-72.65099,Whately,MA,Massachusetts,True,,295.0,26.4,25011,Franklin,America/New_York
1094,42.36481,-72.13548,Wheelwright,MA,Massachusetts,True,,428.0,229.6,25027,Worcester,America/New_York
1095,42.12763,-72.42994,Wilbraham,MA,Massachusetts,True,,14740.0,253.1,25013,Hampden,America/New_York
1096,42.40968,-72.77213,Williamsburg,MA,Massachusetts,True,,2288.0,24.6,25015,Hampshire,America/New_York
1097,42.17722,-72.83175,Woronoco,MA,Massachusetts,True,,93.0,20.6,25013,Hampden,America/New_York
1098,42.39551,-72.94315,Worthington,MA,Massachusetts,True,,1182.0,14.3,25015,Hampshire,America/New_York
1103,42.10443,-72.58997,Springfield,MA,Massachusetts,True,,1989.0,1766.2,25013,Hampden,America/New_York
1104,42.13326,-72.56733,Springfield,MA,Massachusetts,True,,23150.0,1708.3,25013,Hampden,America/New_York
1105,42.09911,-72.57865,Springfield,MA,Massachusetts,True,,12651.0,4050.6,25013,Hampden,America/New_York
1106,42.04877,-72.57163,Longmeadow,MA,Massachusetts,True,,15982.0,643.7,25013,Hampden,America/New_York
1107,42.12116,-72.60642,Springfield,MA,Massachusetts,True,,11693.0,2927.2,25013,Hampden,America/New_York
1108,42.0814,-72.55866,Springfield,MA,Massachusetts,True,,26397.0,2961.8,25013,Hampden,America/New_York
1109,42.11839,-72.54876,Springfield,MA,Massachusetts,True,,30684.0,2177.3,25013,Hampden,America/New_York
1118,42.09476,-72.5253,Springfield,MA,Massachusetts,True,,14839.0,1593.4,25013,Hampden,America/New_York
1119,42.12452,-72.51126,Springfield,MA,Massachusetts,True,,13253.0,1449.3,25013,Hampden,America/New_York
1128,42.09497,-72.48806,Springfield,MA,Massachusetts,True,,2989.0,1040.7,25013,Hampden,America/New_York
1129,42.1211,-72.4877,Springfield,MA,Massachusetts,True,,6296.0,707.5,25013,Hampden,America/New_York
1144,42.10189,-72.59091,Springfield,MA,Massachusetts,True,,,,25013,Hampden,America/New_York
1151,42.15294,-72.50883,Indian Orchard,MA,Massachusetts,True,,9485.0,1546.0,25013,Hampden,America/New_York
1201,42.45614,-73.28114,Pittsfield,MA,Massachusetts,True,,43941.0,281.0,25003,Berkshire,America/New_York
1220,42.62686,-73.11873,Adams,MA,Massachusetts,True,,8129.0,137.1,25003,Berkshire,America/New_York
1222,42.06242,-73.32146,Ashley Falls,MA,Massachusetts,True,,720.0,60.5,25003,Berkshire,America/New_York
1223,42.31118,-73.09835,Becket,MA,Massachusetts,True,,2499.0,13.9,25003,Berkshire,America/New_York
1224,42.50622,-73.19841,Berkshire,MA,Massachusetts,True,,163.0,135.2,25003,Berkshire,America/New_York
1225,42.56385,-73.1512,Cheshire,MA,Massachusetts,True,,3093.0,44.5,25003,Berkshire,America/New_York
1226,42.47954,-73.15329,Dalton,MA,Massachusetts,True,,6698.0,118.9,25003,Berkshire,America/New_York
1229,42.29411,-73.35227,Glendale,MA,Massachusetts,True,,59.0,9.2,25003,Berkshire,America/New_York
1230,42.18197,-73.34244,Great Barrington,MA,Massachusetts,True,,8354.0,33.3,25003,Berkshire,America/New_York
1235,42.43181,-73.07336,Hinsdale,MA,Massachusetts,True,,2369.0,19.6,25003,Berkshire,America/New_York
1236,42.26923,-73.37999,Housatonic,MA,Massachusetts,True,,1577.0,92.0,25003,Berkshire,America/New_York
1237,42.5529,-73.25373,Lanesborough,MA,Massachusetts,True,,2522.0,19.7,25003,Berkshire,America/New_York
1238,42.30072,-73.22553,Lee,MA,Massachusetts,True,,5980.0,83.6,25003,Berkshire,America/New_York
1240,42.37567,-73.26466,Lenox,MA,Massachusetts,True,,4666.0,75.3,25003,Berkshire,America/New_York
1242,42.3334,-73.24967,Lenox Dale,MA,Massachusetts,True,,337.0,283.2,25003,Berkshire,America/New_York
1243,42.34752,-73.03467,Middlefield,MA,Massachusetts,True,,258.0,7.0,25015,Hampshire,America/New_York
1244,42.10924,-73.27475,Mill River,MA,Massachusetts,True,,120.0,8.0,25003,Berkshire,America/New_York
1245,42.19043,-73.21579,Monterey,MA,Massachusetts,True,,774.0,11.6,25003,Berkshire,America/New_York
1247,42.69813,-73.09264,North Adams,MA,Massachusetts,True,,15340.0,129.0,25003,Berkshire,America/New_York
1253,42.20751,-73.1118,Otis,MA,Massachusetts,True,,789.0,14.4,25003,Berkshire,America/New_York
1254,42.37972,-73.36608,Richmond,MA,Massachusetts,True,,961.0,25.7,25003,Berkshire,America/New_York
1255,42.1068,-73.12213,Sandisfield,MA,Massachusetts,True,,891.0,6.8,25003,Berkshire,America/New_York
1256,42.59627,-73.01958,Savoy,MA,Massachusetts,True,,701.0,7.5,25003,Berkshire,America/New_York
1257,42.0976,-73.37241,Sheffield,MA,Massachusetts,True,,1858.0,21.2,25003,Berkshire,America/New_York
1258,42.09396,-73.46616,South Egremont,MA,Massachusetts,True,,604.0,10.5,25003,Berkshire,America/New_York
1259,42.07316,-73.23282,Southfield,MA,Massachusetts,True,,617.0,10.4,25003,Berkshire,America/New_York
1260,42.26663,-73.2712,South Lee,MA,Massachusetts,True,,,,25003,Berkshire,America/New_York
1262,42.30433,-73.32013,Stockbridge,MA,Massachusetts,True,,1136.0,22.2,25003,Berkshire,America/New_York
1264,42.23997,-73.19686,Tyringham,MA,Massachusetts,True,,214.0,5.7,25003,Berkshire,America/New_York
1266,42.30264,-73.39846,West Stockbridge,MA,Massachusetts,True,,1281.0,24.5,25003,Berkshire,America/New_York
1267,42.66593,-73.24209,Williamstown,MA,Massachusetts,True,,7796.0,50.8,25003,Berkshire,America/New_York
1270,42.51297,-73.04859,Windsor,MA,Massachusetts,True,,897.0,10.7,25003,Berkshire,America/New_York
1301,42.62375,-72.60379,Greenfield,MA,Massachusetts,True,,17611.0,268.2,25011,Franklin,America/New_York
1330,42.51772,-72.81556,Ashfield,MA,Massachusetts,True,,1594.0,17.9,25011,Franklin,America/New_York
1331,42.56793,-72.18324,Athol,MA,Massachusetts,True,,13609.0,97.0,25027,Worcester,America/New_York
1337,42.69512,-72.57731,Bernardston,MA,Massachusetts,True,,2442.0,25.2,25011,Franklin,America/New_York
1338,42.5814,-72.80309,Buckland,MA,Massachusetts,True,,150.0,44.2,25011,Franklin,America/New_York
1339,42.61099,-72.88846,Charlemont,MA,Massachusetts,True,,1410.0,9.3,25011,Franklin,America/New_York
1340,42.68805,-72.73205,Colrain,MA,Massachusetts,True,,1780.0,13.2,25011,Franklin,America/New_York
1341,42.50734,-72.70221,Conway,MA,Massachusetts,True,,1796.0,20.7,25011,Franklin,America/New_York
1342,42.54384,-72.6058,Deerfield,MA,Massachusetts,True,,1165.0,24.4,25011,Franklin,America/New_York
1343,42.66766,-72.98822,Drury,MA,Massachusetts,True,,78.0,2.6,25003,Berkshire,America/New_York
1344,42.60756,-72.42916,Erving,MA,Massachusetts,True,,1343.0,37.6,25011,Franklin,America/New_York
1346,42.6706,-72.81323,Heath,MA,Massachusetts,True,,544.0,15.7,25011,Franklin,America/New_York
1347,42.56027,-72.51321,Lake Pleasant,MA,Massachusetts,True,,139.0,150.2,25011,Franklin,America/New_York
1349,42.56656,-72.47045,Millers Falls,MA,Massachusetts,True,,1267.0,49.6,25011,Franklin,America/New_York
1350,42.72259,-72.98291,Monroe Bridge,MA,Massachusetts,True,,100.0,3.6,25011,Franklin,America/New_York
1351,42.54162,-72.52069,Montague,MA,Massachusetts,True,,2577.0,50.8,25011,Franklin,America/New_York
1354,42.63282,-72.51136,Gill,MA,Massachusetts,True,,1732.0,48.6,25011,Franklin,America/New_York
1355,42.45101,-72.33141,New Salem,MA,Massachusetts,True,,981.0,8.0,25011,Franklin,America/New_York
1360,42.67575,-72.446,Northfield,MA,Massachusetts,True,,2973.0,33.5,25011,Franklin,America/New_York
1364,42.60449,-72.29263,Orange,MA,Massachusetts,True,,7721.0,82.8,25011,Franklin,America/New_York
1366,42.48858,-72.18564,Petersham,MA,Massachusetts,True,,1155.0,12.1,25027,Worcester,America/New_York
1367,42.69674,-72.91387,Rowe,MA,Massachusetts,True,,519.0,8.2,25011,Franklin,America/New_York
1368,42.67815,-72.18557,Royalston,MA,Massachusetts,True,,1451.0,12.6,25027,Worcester,America/New_York
1370,42.59607,-72.72915,Shelburne Falls,MA,Massachusetts,True,,3727.0,29.9,25011,Franklin,America/New_York
1373,42.47292,-72.61516,South Deerfield,MA,Massachusetts,True,,4866.0,81.5,25011,Franklin,America/New_York
1375,42.46475,-72.55489,Sunderland,MA,Massachusetts,True,,3643.0,99.9,25011,Franklin,America/New_York
1376,42.59273,-72.54591,Turners Falls,MA,Massachusetts,True,,4630.0,438.3,25011,Franklin,America/New_York
1378,42.67711,-72.34057,Warwick,MA,Massachusetts,True,,738.0,7.6,25011,Franklin,America/New_York
1379,42.54149,-72.3989,Wendell,MA,Massachusetts,True,,835.0,14.9,25011,Franklin,America/New_York
1380,42.58675,-72.40264,Wendell Depot,MA,Massachusetts,True,,,,25011,Franklin,America/New_York
1420,42.58559,-71.81693,Fitchburg,MA,Massachusetts,True,,40576.0,521.2,25027,Worcester,America/New_York
1430,42.66069,-71.9232,Ashburnham,MA,Massachusetts,True,,6320.0,66.4,25027,Worcester,America/New_York
1431,42.67652,-71.82322,Ashby,MA,Massachusetts,True,,3211.0,52.4,25017,Middlesex,America/New_York
1432,42.56351,-71.57059,Ayer,MA,Massachusetts,True,,7760.0,351.7,25017,Middlesex,America/New_York
1434,42.53149,-71.61663,Devens,MA,Massachusetts,True,,2007.0,119.0,25027,Worcester,America/New_York
1436,42.60579,-72.08958,Baldwinville,MA,Massachusetts,True,,3538.0,151.9,25027,Worcester,America/New_York
1438,42.56028,-72.03583,East Templeton,MA,Massachusetts,True,,512.0,608.8,25027,Worcester,America/New_York
1440,42.58797,-71.98649,Gardner,MA,Massachusetts,True,,20605.0,324.6,25027,Worcester,America/New_York
1450,42.61368,-71.56139,Groton,MA,Massachusetts,True,,11322.0,133.4,25017,Middlesex,America/New_York
1451,42.50005,-71.57754,Harvard,MA,Massachusetts,True,,4576.0,83.9,25027,Worcester,America/New_York
1452,42.48378,-72.00514,Hubbardston,MA,Massachusetts,True,,4758.0,44.7,25027,Worcester,America/New_York
1453,42.51961,-71.76583,Leominster,MA,Massachusetts,True,,41654.0,610.1,25027,Worcester,America/New_York
1460,42.53503,-71.4891,Littleton,MA,Massachusetts,True,,10152.0,237.3,25017,Middlesex,America/New_York
1462,42.58994,-71.72036,Lunenburg,MA,Massachusetts,True,,11530.0,167.2,25027,Worcester,America/New_York
1463,42.67126,-71.60429,Pepperell,MA,Massachusetts,True,,12113.0,207.1,25017,Middlesex,America/New_York
1464,42.57411,-71.6475,Shirley,MA,Massachusetts,True,,7616.0,194.4,25017,Middlesex,America/New_York
1468,42.55324,-72.06879,Templeton,MA,Massachusetts,True,,4065.0,71.5,25027,Worcester,America/New_York
1469,42.66514,-71.69161,Townsend,MA,Massachusetts,True,,7812.0,139.5,25017,Middlesex,America/New_York
1473,42.55122,-71.90266,Westminster,MA,Massachusetts,True,,7874.0,85.8,25027,Worcester,America/New_York
1474,42.67088,-71.7508,West Townsend,MA,Massachusetts,True,,1685.0,58.7,25017,Middlesex,America/New_York
1475,42.66675,-72.04902,Winchendon,MA,Massachusetts,True,,10831.0,97.8,25027,Worcester,America/New_York
1501,42.19689,-71.84549,Auburn,MA,Massachusetts,True,,16627.0,420.8,25027,Worcester,America/New_York
1503,42.38378,-71.63552,Berlin,MA,Massachusetts,True,,3312.0,98.6,25027,Worcester,America/New_York
1504,42.0399,-71.53125,Blackstone,MA,Massachusetts,True,,9249.0,321.4,25027,Worcester,America/New_York
1505,42.35633,-71.72123,Boylston,MA,Massachusetts,True,,4666.0,112.2,25027,Worcester,America/New_York
1506,42.19364,-72.10441,Brookfield,MA,Massachusetts,True,,3439.0,85.5,25027,Worcester,America/New_York
1507,42.13509,-71.96803,Charlton,MA,Massachusetts,True,,13610.0,124.6,25027,Worcester,America/New_York
1510,42.4119,-71.68883,Clinton,MA,Massachusetts,True,,13940.0,952.1,25027,Worcester,America/New_York
1515,42.20328,-72.04669,East Brookfield,MA,Massachusetts,True,,2157.0,84.4,25027,Worcester,America/New_York
1516,42.0528,-71.75106,Douglas,MA,Massachusetts,True,,9168.0,96.6,25027,Worcester,America/New_York
1518,42.11342,-72.11632,Fiskdale,MA,Massachusetts,True,,3606.0,113.8,25027,Worcester,America/New_York
1519,42.20077,-71.67892,Grafton,MA,Massachusetts,True,,7566.0,273.5,25027,Worcester,America/New_York
1520,42.33685,-71.85181,Holden,MA,Massachusetts,True,,16059.0,329.4,25027,Worcester,America/New_York
1521,42.06012,-72.16592,Holland,MA,Massachusetts,True,,2492.0,78.3,25013,Hampden,America/New_York
1522,42.38142,-71.87111,Jefferson,MA,Massachusetts,True,,3069.0,75.5,25027,Worcester,America/New_York
1523,42.48176,-71.68079,Lancaster,MA,Massachusetts,True,,7809.0,109.9,25027,Worcester,America/New_York
1524,42.24919,-71.91989,Leicester,MA,Massachusetts,True,,6778.0,164.6,25027,Worcester,America/New_York
1525,42.09899,-71.64296,Linwood,MA,Massachusetts,True,,,,25027,Worcester,America/New_York
1527,42.19228,-71.77397,Millbury,MA,Massachusetts,True,,13822.0,342.5,25027,Worcester,America/New_York
1529,42.03906,-71.57767,Millville,MA,Massachusetts,True,,3249.0,258.0,25027,Worcester,America/New_York
1531,42.31929,-72.12794,New Braintree,MA,Massachusetts,True,,1155.0,21.5,25027,Worcester,America/New_York
1532,42.32314,-71.64621,Northborough,MA,Massachusetts,True,,15047.0,314.4,25027,Worcester,America/New_York
1534,42.13991,-71.64433,Northbridge,MA,Massachusetts,True,,5885.0,238.8,25027,Worcester,America/New_York
1535,42.2695,-72.07794,North Brookfield,MA,Massachusetts,True,,4774.0,86.7,25027,Worcester,America/New_York
1536,42.23189,-71.69219,North Grafton,MA,Massachusetts,True,,7030.0,317.0,25027,Worcester,America/New_York
1537,42.16177,-71.89217,North Oxford,MA,Massachusetts,True,,2244.0,127.2,25027,Worcester,America/New_York
1540,42.11649,-71.85819,Oxford,MA,Massachusetts,True,,11679.0,236.0,25027,Worcester,America/New_York
1541,42.45649,-71.88128,Princeton,MA,Massachusetts,True,,3466.0,37.8,25027,Worcester,America/New_York
1542,42.20241,-71.90995,Rochdale,MA,Massachusetts,True,,2544.0,233.1,25027,Worcester,America/New_York
1543,42.38482,-71.96726,Rutland,MA,Massachusetts,True,,8799.0,96.7,25027,Worcester,America/New_York
1545,42.28419,-71.71558,Shrewsbury,MA,Massachusetts,True,,37683.0,701.1,25027,Worcester,America/New_York
1550,42.06039,-72.03377,Southbridge,MA,Massachusetts,True,,16865.0,321.7,25027,Worcester,America/New_York
1560,42.17496,-71.67762,South Grafton,MA,Massachusetts,True,,4467.0,484.2,25027,Worcester,America/New_York
1561,42.44581,-71.68845,South Lancaster,MA,Massachusetts,True,,102.0,1045.3,25027,Worcester,America/New_York
1562,42.24715,-71.99189,Spencer,MA,Massachusetts,True,,11942.0,140.4,25027,Worcester,America/New_York
1564,42.44124,-71.77297,Sterling,MA,Massachusetts,True,,8130.0,102.5,25027,Worcester,America/New_York
1566,42.1047,-72.07745,Sturbridge,MA,Massachusetts,True,,5953.0,92.0,25027,Worcester,America/New_York
1568,42.17694,-71.60516,Upton,MA,Massachusetts,True,,7968.0,145.0,25027,Worcester,America/New_York
1569,42.05895,-71.63741,Uxbridge,MA,Massachusetts,True,,13901.0,182.7,25027,Worcester,America/New_York
1570,42.05206,-71.8485,Webster,MA,Massachusetts,True,,16934.0,529.1,25027,Worcester,America/New_York
1571,42.05501,-71.93519,Dudley,MA,Massachusetts,True,,11699.0,216.8,25027,Worcester,America/New_York
1581,42.26815,-71.61402,Westborough,MA,Massachusetts,True,,19035.0,356.7,25027,Worcester,America/New_York
1583,42.37034,-71.78502,West Boylston,MA,Massachusetts,True,,7752.0,238.0,25027,Worcester,America/New_York
1585,42.23762,-72.16311,West Brookfield,MA,Massachusetts,True,,4601.0,63.3,25027,Worcester,America/New_York
1588,42.11837,-71.66836,Whitinsville,MA,Massachusetts,True,,10439.0,498.0,25027,Worcester,America/New_York
1590,42.13387,-71.75179,Sutton,MA,Massachusetts,True,,9458.0,112.5,25027,Worcester,America/New_York
1602,42.27219,-71.84946,Worcester,MA,Massachusetts,True,,24363.0,1613.8,25027,Worcester,America/New_York
1603,42.24373,-71.84429,Worcester,MA,Massachusetts,True,,18612.0,1586.4,25027,Worcester,America/New_York
1604,42.25085,-71.7683,Worcester,MA,Massachusetts,True,,37633.0,2190.4,25027,Worcester,America/New_York
1605,42.28979,-71.78802,Worcester,MA,Massachusetts,True,,27587.0,1883.9,25027,Worcester,America/New_York
1606,42.31367,-71.79614,Worcester,MA,Massachusetts,True,,20060.0,1293.4,25027,Worcester,America/New_York
1607,42.22684,-71.79037,Worcester,MA,Massachusetts,True,,8410.0,1072.9,25027,Worcester,America/New_York
1608,42.2621,-71.80145,Worcester,MA,Massachusetts,True,,4910.0,3937.1,25027,Worcester,America/New_York
1609,42.28592,-71.82853,Worcester,MA,Massachusetts,True,,21780.0,2252.2,25027,Worcester,America/New_York
1610,42.24645,-71.80968,Worcester,MA,Massachusetts,True,,22152.0,4010.9,25027,Worcester,America/New_York
1611,42.23945,-71.87702,Cherry Valley,MA,Massachusetts,True,,2036.0,230.0,25027,Worcester,America/New_York
1612,42.31037,-71.93095,Paxton,MA,Massachusetts,True,,4961.0,125.5,25027,Worcester,America/New_York
1701,42.32195,-71.43796,Framingham,MA,Massachusetts,True,,33742.0,771.4,25017,Middlesex,America/New_York
1702,42.28242,-71.43428,Framingham,MA,Massachusetts,True,,39163.0,1841.6,25017,Middlesex,America/New_York
1718,42.52165,-71.42983,Acton,MA,Massachusetts,True,,709.0,1985.8,25017,Middlesex,America/New_York
1719,42.48837,-71.51779,Boxborough,MA,Massachusetts,True,,5677.0,213.1,25017,Middlesex,America/New_York
1720,42.48397,-71.43809,Acton,MA,Massachusetts,True,,22914.0,450.9,25017,Middlesex,America/New_York
1721,42.25726,-71.46867,Ashland,MA,Massachusetts,True,,17787.0,556.6,25017,Middlesex,America/New_York
1730,42.4995,-71.27799,Bedford,MA,Massachusetts,True,,14072.0,436.6,25017,Middlesex,America/New_York
1731,42.46422,-71.28202,Hanscom Afb,MA,Massachusetts,True,,2119.0,350.1,25017,Middlesex,America/New_York
1740,42.43616,-71.60728,Bolton,MA,Massachusetts,True,,5356.0,103.7,25027,Worcester,America/New_York
1741,42.53001,-71.35128,Carlisle,MA,Massachusetts,True,,5232.0,132.3,25017,Middlesex,America/New_York
1742,42.46221,-71.36504,Concord,MA,Massachusetts,True,,18927.0,302.9,25017,Middlesex,America/New_York
1745,42.29155,-71.50101,Fayville,MA,Massachusetts,True,,600.0,594.1,25027,Worcester,America/New_York
1746,42.19775,-71.44499,Holliston,MA,Massachusetts,True,,14792.0,306.2,25017,Middlesex,America/New_York
1747,42.12477,-71.535,Hopedale,MA,Massachusetts,True,,5956.0,444.4,25027,Worcester,America/New_York
1748,42.2255,-71.53781,Hopkinton,MA,Massachusetts,True,,18030.0,265.4,25017,Middlesex,America/New_York
1749,42.38868,-71.54648,Hudson,MA,Massachusetts,True,,19863.0,665.3,25017,Middlesex,America/New_York
1752,42.3494,-71.54681,Marlborough,MA,Massachusetts,True,,39663.0,734.1,25017,Middlesex,America/New_York
1754,42.4264,-71.45607,Maynard,MA,Massachusetts,True,,10900.0,809.8,25017,Middlesex,America/New_York
1756,42.09301,-71.55146,Mendon,MA,Massachusetts,True,,6146.0,133.5,25027,Worcester,America/New_York
1757,42.15723,-71.51978,Milford,MA,Massachusetts,True,,28936.0,738.2,25027,Worcester,America/New_York
1760,42.28436,-71.34966,Natick,MA,Massachusetts,True,,35770.0,934.4,25017,Middlesex,America/New_York
1770,42.23416,-71.37532,Sherborn,MA,Massachusetts,True,,4324.0,105.7,25017,Middlesex,America/New_York
1772,42.30144,-71.5304,Southborough,MA,Massachusetts,True,,9551.0,270.9,25027,Worcester,America/New_York
1773,42.42572,-71.31013,Lincoln,MA,Massachusetts,True,,4847.0,135.0,25017,Middlesex,America/New_York
1775,42.42983,-71.51146,Stow,MA,Massachusetts,True,,7159.0,159.5,25017,Middlesex,America/New_York
1776,42.38456,-71.42316,Sudbury,MA,Massachusetts,True,,19248.0,304.5,25017,Middlesex,America/New_York
1778,42.3583,-71.35895,Wayland,MA,Massachusetts,True,,14038.0,360.6,25017,Middlesex,America/New_York
1801,42.48694,-71.15415,Woburn,MA,Massachusetts,True,,40297.0,1224.6,25017,Middlesex,America/New_York
1803,42.5028,-71.20147,Burlington,MA,Massachusetts,True,,28077.0,961.8,25017,Middlesex,America/New_York
1810,42.64669,-71.16517,Andover,MA,Massachusetts,True,,36098.0,456.6,25009,Essex,America/New_York
1821,42.54999,-71.25206,Billerica,MA,Massachusetts,True,,32936.0,766.4,25017,Middlesex,America/New_York
1824,42.59156,-71.35553,Chelmsford,MA,Massachusetts,True,,25762.0,550.7,25017,Middlesex,America/New_York
1826,42.68323,-71.30063,Dracut,MA,Massachusetts,True,,31389.0,583.1,25017,Middlesex,America/New_York
1827,42.67643,-71.50052,Dunstable,MA,Massachusetts,True,,3374.0,79.2,25017,Middlesex,America/New_York
1830,42.7959,-71.05323,Haverhill,MA,Massachusetts,True,,26225.0,730.1,25009,Essex,America/New_York
1832,42.79099,-71.13133,Haverhill,MA,Massachusetts,True,,23736.0,807.0,25009,Essex,America/New_York
1833,42.72409,-70.9821,Georgetown,MA,Massachusetts,True,,8733.0,262.9,25009,Essex,America/New_York
1834,42.75198,-71.01486,Groveland,MA,Massachusetts,True,,6815.0,296.3,25009,Essex,America/New_York
1835,42.75292,-71.08602,Haverhill,MA,Massachusetts,True,,13822.0,683.2,25009,Essex,America/New_York
1840,42.70695,-71.16014,Lawrence,MA,Massachusetts,True,,5416.0,4096.3,25009,Essex,America/New_York
1841,42.71077,-71.16494,Lawrence,MA,Massachusetts,True,,49437.0,6271.7,25009,Essex,America/New_York
1843,42.68985,-71.16095,Lawrence,MA,Massachusetts,True,,25170.0,2880.0,25009,Essex,America/New_York
1844,42.73426,-71.18858,Methuen,MA,Massachusetts,True,,50517.0,882.6,25009,Essex,America/New_York
1845,42.67132,-71.08669,North Andover,MA,Massachusetts,True,,31262.0,457.0,25009,Essex,America/New_York
1850,42.65569,-71.30292,Lowell,MA,Massachusetts,True,,15950.0,4525.2,25017,Middlesex,America/New_York
1851,42.62915,-71.33674,Lowell,MA,Massachusetts,True,,31558.0,3773.8,25017,Middlesex,America/New_York
1852,42.63231,-71.29538,Lowell,MA,Massachusetts,True,,35033.0,2720.1,25017,Middlesex,America/New_York
1854,42.64939,-71.34827,Lowell,MA,Massachusetts,True,,28770.0,2804.9,25017,Middlesex,America/New_York
1860,42.83858,-71.01194,Merrimac,MA,Massachusetts,True,,6926.0,314.7,25009,Essex,America/New_York
1862,42.57427,-71.29437,North Billerica,MA,Massachusetts,True,,10519.0,446.0,25017,Middlesex,America/New_York
1863,42.63274,-71.39132,North Chelmsford,MA,Massachusetts,True,,9477.0,821.3,25017,Middlesex,America/New_York
1864,42.58156,-71.08759,North Reading,MA,Massachusetts,True,,15672.0,459.9,25017,Middlesex,America/New_York
1867,42.53505,-71.1055,Reading,MA,Massachusetts,True,,25236.0,977.8,25017,Middlesex,America/New_York
1876,42.61206,-71.22733,Tewksbury,MA,Massachusetts,True,,30973.0,574.1,25017,Middlesex,America/New_York
1879,42.66626,-71.42911,Tyngsboro,MA,Massachusetts,True,,12511.0,288.2,25017,Middlesex,America/New_York
1880,42.50348,-71.06559,Wakefield,MA,Massachusetts,True,,26704.0,1396.1,25017,Middlesex,America/New_York
1886,42.58642,-71.44008,Westford,MA,Massachusetts,True,,24566.0,313.6,25017,Middlesex,America/New_York
1887,42.56091,-71.16541,Wilmington,MA,Massachusetts,True,,23390.0,532.1,25017,Middlesex,America/New_York
1890,42.45177,-71.14628,Winchester,MA,Massachusetts,True,,22760.0,1456.9,25017,Middlesex,America/New_York
1901,42.46125,-70.94639,Lynn,MA,Massachusetts,True,,2370.0,3373.5,25009,Essex,America/New_York
1902,42.4712,-70.93983,Lynn,MA,Massachusetts,True,,49472.0,8060.3,25009,Essex,America/New_York
1904,42.49151,-70.97166,Lynn,MA,Massachusetts,True,,17928.0,1630.3,25009,Essex,America/New_York
1905,42.46355,-70.9733,Lynn,MA,Massachusetts,True,,24369.0,3084.8,25009,Essex,America/New_York
1906,42.46922,-71.01299,Saugus,MA,Massachusetts,True,,28334.0,944.9,25009,Essex,America/New_York
1907,42.47572,-70.90684,Swampscott,MA,Massachusetts,True,,15468.0,1975.6,25009,Essex,America/New_York
1908,42.42856,-70.92614,Nahant,MA,Massachusetts,True,,3512.0,1260.5,25009,Essex,America/New_York
1913,42.85297,-70.94459,Amesbury,MA,Massachusetts,True,,17474.0,548.9,25009,Essex,America/New_York
1915,42.56841,-70.8647,Beverly,MA,Massachusetts,True,,42062.0,1143.0,25009,Essex,America/New_York
1921,42.6815,-71.01887,Boxford,MA,Massachusetts,True,,8316.0,136.1,25009,Essex,America/New_York
1922,42.75862,-70.91758,Byfield,MA,Massachusetts,True,,3758.0,160.0,25009,Essex,America/New_York
1923,42.57398,-70.94923,Danvers,MA,Massachusetts,True,,27367.0,800.2,25009,Essex,America/New_York
1929,42.63478,-70.77684,Essex,MA,Massachusetts,True,,3771.0,104.5,25009,Essex,America/New_York
1930,42.62605,-70.68966,Gloucester,MA,Massachusetts,True,,30291.0,446.4,25009,Essex,America/New_York
1937,42.58579,-70.98406,Hathorne,MA,Massachusetts,True,,182.0,961.9,25009,Essex,America/New_York
1938,42.68568,-70.83989,Ipswich,MA,Massachusetts,True,,14022.0,168.6,25009,Essex,America/New_York
1940,42.53523,-71.03695,Lynnfield,MA,Massachusetts,True,,13429.0,514.5,25009,Essex,America/New_York
1944,42.58154,-70.76825,Manchester,MA,Massachusetts,True,,5400.0,225.9,25009,Essex,America/New_York
1945,42.49924,-70.86348,Marblehead,MA,Massachusetts,True,,20530.0,1789.4,25009,Essex,America/New_York
1949,42.6043,-71.01641,Middleton,MA,Massachusetts,True,,9952.0,285.7,25009,Essex,America/New_York
1950,42.81237,-70.88785,Newburyport,MA,Massachusetts,True,,18197.0,841.4,25009,Essex,America/New_York
1951,42.77742,-70.85022,Newbury,MA,Massachusetts,True,,3348.0,90.4,25009,Essex,America/New_York
1952,42.84655,-70.86163,Salisbury,MA,Massachusetts,True,,9477.0,238.0,25009,Essex,America/New_York
1960,42.53374,-70.97222,Peabody,MA,Massachusetts,True,,52880.0,1274.8,25009,Essex,America/New_York
1965,42.56294,-70.82996,Prides Crossing,MA,Massachusetts,True,,,,25009,Essex,America/New_York
1966,42.65432,-70.62227,Rockport,MA,Massachusetts,True,,7269.0,401.6,25009,Essex,America/New_York
1969,42.72235,-70.88832,Rowley,MA,Massachusetts,True,,6375.0,135.2,25009,Essex,America/New_York
1970,42.51298,-70.90266,Salem,MA,Massachusetts,True,,43120.0,2019.9,25009,Essex,America/New_York
1982,42.62669,-70.85789,South Hamilton,MA,Massachusetts,True,,8048.0,218.8,25009,Essex,America/New_York
1983,42.63728,-70.94251,Topsfield,MA,Massachusetts,True,,6613.0,214.6,25009,Essex,America/New_York
1984,42.60078,-70.8826,Wenham,MA,Massachusetts,True,,5208.0,262.6,25009,Essex,America/New_York
1985,42.7939,-70.96906,West Newbury,MA,Massachusetts,True,,4688.0,134.6,25009,Essex,America/New_York
2019,42.0777,-71.47407,Bellingham,MA,Massachusetts,True,,17196.0,362.0,25021,Norfolk,America/New_York
2021,42.17504,-71.12645,Canton,MA,Massachusetts,True,,23615.0,486.4,25021,Norfolk,America/New_York
2025,42.23603,-70.81906,Cohasset,MA,Massachusetts,True,,8520.0,336.6,25021,Norfolk,America/New_York
2026,42.24665,-71.1777,Dedham,MA,Massachusetts,True,,25316.0,951.7,25021,Norfolk,America/New_York
2030,42.2366,-71.28421,Dover,MA,Massachusetts,True,,6079.0,155.5,25021,Norfolk,America/New_York
2032,42.15489,-71.2155,East Walpole,MA,Massachusetts,True,,4360.0,719.9,25021,Norfolk,America/New_York
2035,42.06266,-71.24613,Foxboro,MA,Massachusetts,True,,17917.0,348.4,25021,Norfolk,America/New_York
2038,42.08622,-71.41126,Franklin,MA,Massachusetts,True,,33644.0,487.6,25021,Norfolk,America/New_York
2043,42.21678,-70.88494,Hingham,MA,Massachusetts,True,,23983.0,417.5,25023,Plymouth,America/New_York
2045,42.28437,-70.88266,Hull,MA,Massachusetts,True,,10478.0,1513.1,25023,Plymouth,America/New_York
2047,42.14582,-70.69603,Humarock,MA,Massachusetts,True,,156.0,104.4,25023,Plymouth,America/New_York
2048,42.01626,-71.21868,Mansfield,MA,Massachusetts,True,,24145.0,463.7,25005,Bristol,America/New_York
2050,42.11443,-70.71487,Marshfield,MA,Massachusetts,True,,26109.0,350.5,25023,Plymouth,America/New_York
2052,42.1848,-71.30501,Medfield,MA,Massachusetts,True,,12926.0,346.4,25021,Norfolk,America/New_York
2053,42.15352,-71.42906,Medway,MA,Massachusetts,True,,13398.0,448.4,25021,Norfolk,America/New_York
2054,42.1693,-71.36261,Millis,MA,Massachusetts,True,,8288.0,265.9,25021,Norfolk,America/New_York
2056,42.11632,-71.32952,Norfolk,MA,Massachusetts,True,,11861.0,307.4,25021,Norfolk,America/New_York
2061,42.16075,-70.81772,Norwell,MA,Massachusetts,True,,11120.0,205.1,25023,Plymouth,America/New_York
2062,42.18563,-71.19464,Norwood,MA,Massachusetts,True,,29446.0,1077.7,25021,Norfolk,America/New_York
2066,42.20129,-70.76155,Scituate,MA,Massachusetts,True,,18511.0,433.2,25023,Plymouth,America/New_York
2067,42.10778,-71.18183,Sharon,MA,Massachusetts,True,,18653.0,317.5,25021,Norfolk,America/New_York
2071,42.10392,-71.27002,South Walpole,MA,Massachusetts,True,,1230.0,493.7,25021,Norfolk,America/New_York
2072,42.1192,-71.10189,Stoughton,MA,Massachusetts,True,,28742.0,689.9,25021,Norfolk,America/New_York
2081,42.14689,-71.25916,Walpole,MA,Massachusetts,True,,19850.0,432.4,25021,Norfolk,America/New_York
2090,42.22024,-71.21057,Westwood,MA,Massachusetts,True,,16229.0,575.4,25021,Norfolk,America/New_York
2093,42.05129,-71.35522,Wrentham,MA,Massachusetts,True,,11930.0,212.2,25021,Norfolk,America/New_York
2108,42.35657,-71.06516,Boston,MA,Massachusetts,True,,4520.0,6372.3,25025,Suffolk,America/New_York
2109,42.36498,-71.05277,Boston,MA,Massachusetts,True,,3639.0,8285.5,25025,Suffolk,America/New_York
2110,42.35797,-71.05189,Boston,MA,Massachusetts,True,,2340.0,5050.6,25025,Suffolk,America/New_York
2111,42.35067,-71.06054,Boston,MA,Massachusetts,True,,7949.0,15658.3,25025,Suffolk,America/New_York
2113,42.36526,-71.05524,Boston,MA,Massachusetts,True,,7339.0,29115.5,25025,Suffolk,America/New_York
2114,42.36337,-71.06686,Boston,MA,Massachusetts,True,,13260.0,11546.2,25025,Suffolk,America/New_York
2115,42.34046,-71.09481,Boston,MA,Massachusetts,True,,29134.0,15827.6,25025,Suffolk,America/New_York
2116,42.35105,-71.07638,Boston,MA,Massachusetts,True,,23007.0,13678.9,25025,Suffolk,America/New_York
2118,42.33806,-71.07057,Boston,MA,Massachusetts,True,,28892.0,10256.0,25025,Suffolk,America/New_York
2119,42.32405,-71.08522,Roxbury,MA,Massachusetts,True,,27426.0,6556.1,25025,Suffolk,America/New_York
2120,42.33212,-71.09654,Roxbury Crossing,MA,Massachusetts,True,,15210.0,9487.0,25025,Suffolk,America/New_York
2121,42.3057,-71.08693,Dorchester,MA,Massachusetts,True,,29570.0,6054.7,25025,Suffolk,America/New_York
2122,42.29427,-71.05185,Dorchester,MA,Massachusetts,True,,24874.0,5658.1,25025,Suffolk,America/New_York
2124,42.28583,-71.07114,Dorchester Center,MA,Massachusetts,True,,57128.0,7432.2,25025,Suffolk,America/New_York
2125,42.31578,-71.0562,Dorchester,MA,Massachusetts,True,,34725.0,6184.4,25025,Suffolk,America/New_York
2126,42.27588,-71.0918,Mattapan,MA,Massachusetts,True,,29807.0,6294.6,25025,Suffolk,America/New_York
2127,42.33455,-71.03875,South Boston,MA,Massachusetts,True,,36941.0,6931.6,25025,Suffolk,America/New_York
2128,42.37324,-71.01616,East Boston,MA,Massachusetts,True,,47804.0,3673.3,25025,Suffolk,America/New_York
2129,42.37975,-71.06167,Charlestown,MA,Massachusetts,True,,20504.0,5848.3,25025,Suffolk,America/New_York
2130,42.30823,-71.11515,Jamaica Plain,MA,Massachusetts,True,,42021.0,4582.7,25025,Suffolk,America/New_York
2131,42.28392,-71.12468,Roslindale,MA,Massachusetts,True,,34048.0,4715.8,25025,Suffolk,America/New_York
2132,42.27931,-71.16072,West Roxbury,MA,Massachusetts,True,,28263.0,2243.5,25025,Suffolk,America/New_York
2133,42.35838,-71.06383,Boston,MA,Massachusetts,True,,,,25025,Suffolk,America/New_York
2134,42.35855,-71.12931,Allston,MA,Massachusetts,True,,19552.0,6115.9,25025,Suffolk,America/New_York
2135,42.34989,-71.15417,Brighton,MA,Massachusetts,True,,45496.0,6756.9,25025,Suffolk,America/New_York
2136,42.25505,-71.12662,Hyde Park,MA,Massachusetts,True,,36417.0,3057.7,25025,Suffolk,America/New_York
2138,42.37997,-71.13446,Cambridge,MA,Massachusetts,True,,39139.0,5518.7,25017,Middlesex,America/New_York
2139,42.36224,-71.10253,Cambridge,MA,Massachusetts,True,,39702.0,9878.1,25017,Middlesex,America/New_York
2140,42.39332,-71.13342,Cambridge,MA,Massachusetts,True,,20954.0,6984.2,25017,Middlesex,America/New_York
2141,42.37041,-71.08218,Cambridge,MA,Massachusetts,True,,14437.0,9156.4,25017,Middlesex,America/New_York
2142,42.36295,-71.08189,Cambridge,MA,Massachusetts,True,,4074.0,5014.2,25017,Middlesex,America/New_York
2143,42.38142,-71.09677,Somerville,MA,Massachusetts,True,,25102.0,6274.8,25017,Middlesex,America/New_York
2144,42.40088,-71.122,Somerville,MA,Massachusetts,True,,25009.0,8843.5,25017,Middlesex,America/New_York
2145,42.39206,-71.0895,Somerville,MA,Massachusetts,True,,28372.0,7877.0,25017,Middlesex,America/New_York
2148,42.43048,-71.05762,Malden,MA,Massachusetts,True,,60710.0,4645.3,25017,Middlesex,America/New_York
2149,42.40643,-71.05446,Everett,MA,Massachusetts,True,,46275.0,5225.6,25017,Middlesex,America/New_York
2150,42.39587,-71.03251,Chelsea,MA,Massachusetts,True,,39862.0,6950.9,25025,Suffolk,America/New_York
2151,42.41887,-71.004,Revere,MA,Massachusetts,True,,53416.0,3614.9,25025,Suffolk,America/New_York
2152,42.37724,-70.98115,Winthrop,MA,Massachusetts,True,,18558.0,4323.6,25025,Suffolk,America/New_York
2155,42.42324,-71.10878,Medford,MA,Massachusetts,True,,60533.0,2853.8,25017,Middlesex,America/New_York
2163,42.36717,-71.12509,Boston,MA,Massachusetts,True,,2343.0,4930.9,25025,Suffolk,America/New_York
2169,42.23971,-71.01802,Quincy,MA,Massachusetts,True,,56999.0,1819.5,25021,Norfolk,America/New_York
2170,42.26644,-71.01621,Quincy,MA,Massachusetts,True,,19163.0,3548.7,25021,Norfolk,America/New_York
2171,42.28709,-71.02604,Quincy,MA,Massachusetts,True,,18227.0,2869.3,25021,Norfolk,America/New_York
2176,42.45561,-71.05901,Melrose,MA,Massachusetts,True,,28054.0,2312.9,25017,Middlesex,America/New_York
2180,42.47396,-71.09705,Stoneham,MA,Massachusetts,True,,23625.0,1525.9,25017,Middlesex,America/New_York
2184,42.20386,-71.0022,Braintree,MA,Massachusetts,True,,37196.0,1043.5,25021,Norfolk,America/New_York
2186,42.23854,-71.08464,Milton,MA,Massachusetts,True,,27590.0,777.8,25021,Norfolk,America/New_York
2188,42.20724,-70.95764,Weymouth,MA,Massachusetts,True,,16114.0,1611.1,25021,Norfolk,America/New_York
2189,42.2111,-70.93135,East Weymouth,MA,Massachusetts,True,,15337.0,1476.7,25021,Norfolk,America/New_York
2190,42.16625,-70.95253,South Weymouth,MA,Massachusetts,True,,17466.0,964.0,25021,Norfolk,America/New_York
2191,42.24434,-70.94378,North Weymouth,MA,Massachusetts,True,,8296.0,1786.2,25021,Norfolk,America/New_York
2199,42.34748,-71.08199,Boston,MA,Massachusetts,True,,1435.0,9675.0,25025,Suffolk,America/New_York
2203,42.36144,-71.05945,Boston,MA,Massachusetts,True,,24.0,960.1,25025,Suffolk,America/New_York
2205,42.34935,-71.05564,Boston,MA,Massachusetts,True,,,,25025,Suffolk,America/New_York
2210,42.34815,-71.03942,Boston,MA,Massachusetts,True,,4538.0,1898.9,25025,Suffolk,America/New_York
2215,42.34741,-71.10276,Boston,MA,Massachusetts,True,,26243.0,11458.2,25025,Suffolk,America/New_York
2301,42.07791,-71.04223,Brockton,MA,Massachusetts,True,,63920.0,1982.8,25023,Plymouth,America/New_York
2302,42.08792,-70.99864,Brockton,MA,Massachusetts,True,,31820.0,1383.3,25023,Plymouth,America/New_York
2322,42.12666,-71.04922,Avon,MA,Massachusetts,True,,4513.0,406.0,25021,Norfolk,America/New_York
2324,41.97272,-70.97498,Bridgewater,MA,Massachusetts,True,,27441.0,392.7,25023,Plymouth,America/New_York
2325,41.98875,-70.96449,Bridgewater,MA,Massachusetts,True,,,,25023,Plymouth,America/New_York
2330,41.87388,-70.7563,Carver,MA,Massachusetts,True,,11745.0,121.6,25023,Plymouth,America/New_York
2332,42.04651,-70.71388,Duxbury,MA,Massachusetts,True,,15912.0,259.2,25023,Plymouth,America/New_York
2333,42.03521,-70.94235,East Bridgewater,MA,Massachusetts,True,,14509.0,325.8,25023,Plymouth,America/New_York
2338,41.99138,-70.86326,Halifax,MA,Massachusetts,True,,7830.0,189.3,25023,Plymouth,America/New_York
2339,42.12241,-70.85665,Hanover,MA,Massachusetts,True,,14526.0,361.0,25023,Plymouth,America/New_York
2341,42.05604,-70.87251,Hanson,MA,Massachusetts,True,,10874.0,281.7,25023,Plymouth,America/New_York
2343,42.14733,-71.00484,Holbrook,MA,Massachusetts,True,,11051.0,608.6,25021,Norfolk,America/New_York
2346,41.88034,-70.87446,Middleboro,MA,Massachusetts,True,,25139.0,140.6,25023,Plymouth,America/New_York
2347,41.83101,-70.9594,Lakeville,MA,Massachusetts,True,,11531.0,150.4,25023,Plymouth,America/New_York
2350,42.02043,-70.84562,Monponsett,MA,Massachusetts,True,,,,25023,Plymouth,America/New_York
2351,42.11805,-70.95905,Abington,MA,Massachusetts,True,,16557.0,641.6,25023,Plymouth,America/New_York
2356,42.05519,-71.12071,North Easton,MA,Massachusetts,True,,12474.0,354.0,25005,Bristol,America/New_York
2357,42.06224,-71.07751,North Easton,MA,Massachusetts,True,,1050.0,1044.2,25005,Bristol,America/New_York
2359,42.06547,-70.8014,Pembroke,MA,Massachusetts,True,,18455.0,327.0,25023,Plymouth,America/New_York
2360,41.87817,-70.63089,Plymouth,MA,Massachusetts,True,,60797.0,243.5,25023,Plymouth,America/New_York
2364,41.98616,-70.74823,Kingston,MA,Massachusetts,True,,13746.0,284.7,25023,Plymouth,America/New_York
2366,41.84868,-70.6613,South Carver,MA,Massachusetts,True,,194.0,1672.9,25023,Plymouth,America/New_York
2367,41.96345,-70.80975,Plympton,MA,Massachusetts,True,,2979.0,78.3,25023,Plymouth,America/New_York
2368,42.17506,-71.05011,Randolph,MA,Massachusetts,True,,34214.0,1416.9,25021,Norfolk,America/New_York
2370,42.1295,-70.91002,Rockland,MA,Massachusetts,True,,18010.0,693.4,25023,Plymouth,America/New_York
2375,42.01954,-71.10381,South Easton,MA,Massachusetts,True,,11336.0,317.6,25005,Bristol,America/New_York
2379,42.02139,-71.0267,West Bridgewater,MA,Massachusetts,True,,7254.0,182.8,25023,Plymouth,America/New_York
2382,42.08,-70.93993,Whitman,MA,Massachusetts,True,,15139.0,842.7,25023,Plymouth,America/New_York
2420,42.45821,-71.21762,Lexington,MA,Massachusetts,True,,14726.0,807.9,25017,Middlesex,America/New_York
2421,42.438,-71.23922,Lexington,MA,Massachusetts,True,,18578.0,749.6,25017,Middlesex,America/New_York
2445,42.32581,-71.13319,Brookline,MA,Massachusetts,True,,20520.0,3034.3,25021,Norfolk,America/New_York
2446,42.3435,-71.12179,Brookline,MA,Massachusetts,True,,29711.0,8932.2,25021,Norfolk,America/New_York
2451,42.39859,-71.2573,Waltham,MA,Massachusetts,True,,17470.0,1267.9,25017,Middlesex,America/New_York
2452,42.39365,-71.2202,Waltham,MA,Massachusetts,True,,15636.0,1583.2,25017,Middlesex,America/New_York
2453,42.36918,-71.24101,Waltham,MA,Massachusetts,True,,29289.0,3148.3,25017,Middlesex,America/New_York
2457,42.29777,-71.26887,Babson Park,MA,Massachusetts,True,,1812.0,3454.7,25021,Norfolk,America/New_York
2458,42.35294,-71.18763,Newton,MA,Massachusetts,True,,12050.0,2367.0,25017,Middlesex,America/New_York
2459,42.31515,-71.19174,Newton Center,MA,Massachusetts,True,,18631.0,1429.1,25017,Middlesex,America/New_York
2460,42.35206,-71.20835,Newtonville,MA,Massachusetts,True,,9885.0,2831.6,25017,Middlesex,America/New_York
2461,42.31693,-71.20875,Newton Highlands,MA,Massachusetts,True,,6923.0,1741.2,25017,Middlesex,America/New_York
2462,42.33102,-71.25599,Newton Lower Falls,MA,Massachusetts,True,,1222.0,675.6,25017,Middlesex,America/New_York
2464,42.31274,-71.21981,Newton Upper Falls,MA,Massachusetts,True,,3706.0,2598.9,25017,Middlesex,America/New_York
2465,42.34969,-71.22646,West Newton,MA,Massachusetts,True,,11967.0,2148.0,25017,Middlesex,America/New_York
2466,42.34541,-71.24759,Auburndale,MA,Massachusetts,True,,9292.0,2260.2,25017,Middlesex,America/New_York
2467,42.31725,-71.16096,Chestnut Hill,MA,Massachusetts,True,,22982.0,1808.8,25021,Norfolk,America/New_York
2468,42.32777,-71.23142,Waban,MA,Massachusetts,True,,5522.0,1388.0,25017,Middlesex,America/New_York
2472,42.37,-71.17713,Watertown,MA,Massachusetts,True,,35951.0,3444.2,25017,Middlesex,America/New_York
2474,42.42053,-71.15666,Arlington,MA,Massachusetts,True,,27853.0,3516.2,25017,Middlesex,America/New_York
2476,42.41597,-71.17437,Arlington,MA,Massachusetts,True,,17526.0,3246.4,25017,Middlesex,America/New_York
2478,42.39602,-71.17955,Belmont,MA,Massachusetts,True,,26123.0,2171.2,25017,Middlesex,America/New_York
2481,42.31064,-71.27779,Wellesley Hills,MA,Massachusetts,True,,16121.0,1022.1,25021,Norfolk,America/New_York
2482,42.29455,-71.29859,Wellesley,MA,Massachusetts,True,,10814.0,1122.1,25021,Norfolk,America/New_York
2492,42.27615,-71.24387,Needham,MA,Massachusetts,True,,20679.0,840.0,25021,Norfolk,America/New_York
2493,42.35893,-71.30009,Weston,MA,Massachusetts,True,,12103.0,277.8,25017,Middlesex,America/New_York
2494,42.29959,-71.2317,Needham Heights,MA,Massachusetts,True,,10498.0,1447.4,25021,Norfolk,America/New_York
2532,41.75111,-70.59713,Buzzards Bay,MA,Massachusetts,True,,13443.0,376.5,25001,Barnstable,America/New_York
2534,41.66626,-70.61628,Cataumet,MA,Massachusetts,True,,1082.0,152.5,25001,Barnstable,America/New_York
2535,41.34896,-70.74629,Chilmark,MA,Massachusetts,True,,2005.0,31.8,25007,Dukes,America/New_York
2536,41.59706,-70.56677,East Falmouth,MA,Massachusetts,True,,19629.0,277.0,25001,Barnstable,America/New_York
2537,41.72882,-70.44317,East Sandwich,MA,Massachusetts,True,,6824.0,192.0,25001,Barnstable,America/New_York
2538,41.77872,-70.65077,East Wareham,MA,Massachusetts,True,,4129.0,254.5,25023,Plymouth,America/New_York
2539,41.37994,-70.53227,Edgartown,MA,Massachusetts,True,,4358.0,62.8,25007,Dukes,America/New_York
2540,41.57128,-70.62807,Falmouth,MA,Massachusetts,True,,8241.0,289.1,25001,Barnstable,America/New_York
2542,41.70194,-70.54824,Buzzards Bay,MA,Massachusetts,True,,948.0,12.8,25001,Barnstable,America/New_York
2543,41.48731,-70.74525,Woods Hole,MA,Massachusetts,True,,680.0,23.2,25007,Dukes,America/New_York
2553,41.71297,-70.62011,Monument Beach,MA,Massachusetts,True,,96.0,187.4,25001,Barnstable,America/New_York
2554,41.28555,-70.08043,Nantucket,MA,Massachusetts,True,,11023.0,106.4,25019,Nantucket,America/New_York
2556,41.63903,-70.62521,North Falmouth,MA,Massachusetts,True,,2554.0,249.8,25001,Barnstable,America/New_York
2557,41.44218,-70.56648,Oak Bluffs,MA,Massachusetts,True,,4701.0,560.2,25007,Dukes,America/New_York
2558,41.74453,-70.65377,Onset,MA,Massachusetts,True,,1632.0,564.2,25023,Plymouth,America/New_York
2559,41.69237,-70.61374,Pocasset,MA,Massachusetts,True,,3228.0,233.7,25001,Barnstable,America/New_York
2561,41.76782,-70.53281,Sagamore,MA,Massachusetts,True,,257.0,119.7,25001,Barnstable,America/New_York
2562,41.78753,-70.52746,Sagamore Beach,MA,Massachusetts,True,,2814.0,321.8,25001,Barnstable,America/New_York
2563,41.71995,-70.4818,Sandwich,MA,Massachusetts,True,,9728.0,284.2,25001,Barnstable,America/New_York
2564,41.26552,-69.98608,Siasconset,MA,Massachusetts,True,,189.0,12.0,25019,Nantucket,America/New_York
2568,41.44341,-70.61534,Vineyard Haven,MA,Massachusetts,True,,4132.0,124.2,25007,Dukes,America/New_York
2571,41.76184,-70.70138,Wareham,MA,Massachusetts,True,,10858.0,224.2,25023,Plymouth,America/New_York
2575,41.39651,-70.65496,West Tisbury,MA,Massachusetts,True,,2197.0,37.3,25007,Dukes,America/New_York
2576,41.77807,-70.76338,West Wareham,MA,Massachusetts,True,,4171.0,171.2,25023,Plymouth,America/New_York
2584,41.25753,-70.00522,Nantucket,MA,Massachusetts,True,,0.0,0.0,25019,Nantucket,America/New_York
2601,41.66,-70.29327,Hyannis,MA,Massachusetts,True,,14939.0,657.8,25001,Barnstable,America/New_York
2630,41.69674,-70.3052,Barnstable,MA,Massachusetts,True,,1892.0,149.7,25001,Barnstable,America/New_York
2631,41.74673,-70.06894,Brewster,MA,Massachusetts,True,,9565.0,166.4,25001,Barnstable,America/New_York
2632,41.66074,-70.34826,Centerville,MA,Massachusetts,True,,11105.0,574.7,25001,Barnstable,America/New_York
2633,41.68949,-69.97397,Chatham,MA,Massachusetts,True,,4040.0,180.7,25001,Barnstable,America/New_York
2635,41.62348,-70.44051,Cotuit,MA,Massachusetts,True,,2826.0,198.8,25001,Barnstable,America/New_York
2637,41.70493,-70.27245,Cummaquid,MA,Massachusetts,True,,184.0,92.0,25001,Barnstable,America/New_York
2638,41.73225,-70.19459,Dennis,MA,Massachusetts,True,,3028.0,207.4,25001,Barnstable,America/New_York
2639,41.66639,-70.13535,Dennis Port,MA,Massachusetts,True,,3147.0,434.5,25001,Barnstable,America/New_York
2641,41.75221,-70.15176,East Dennis,MA,Massachusetts,True,,202.0,47.0,25001,Barnstable,America/New_York
2642,41.83976,-69.97711,Eastham,MA,Massachusetts,True,,4873.0,134.7,25001,Barnstable,America/New_York
2643,41.75534,-69.94002,East Orleans,MA,Massachusetts,True,,0.0,0.0,25001,Barnstable,America/New_York
2644,41.68361,-70.51202,Forestdale,MA,Massachusetts,True,,3744.0,428.4,25001,Barnstable,America/New_York
2645,41.70352,-70.06215,Harwich,MA,Massachusetts,True,,9730.0,222.0,25001,Barnstable,America/New_York
2646,41.67103,-70.07144,Harwich Port,MA,Massachusetts,True,,1715.0,228.1,25001,Barnstable,America/New_York
2647,41.63127,-70.30909,Hyannis Port,MA,Massachusetts,True,,121.0,108.3,25001,Barnstable,America/New_York
2648,41.67237,-70.41545,Marstons Mills,MA,Massachusetts,True,,6833.0,264.3,25001,Barnstable,America/New_York
2649,41.61778,-70.49077,Mashpee,MA,Massachusetts,True,,14204.0,234.4,25001,Barnstable,America/New_York
2650,41.7036,-69.96589,North Chatham,MA,Massachusetts,True,,865.0,244.8,25001,Barnstable,America/New_York
2652,42.0428,-70.09276,North Truro,MA,Massachusetts,True,,710.0,32.6,25001,Barnstable,America/New_York
2653,41.76901,-69.9737,Orleans,MA,Massachusetts,True,,5865.0,187.9,25001,Barnstable,America/New_York
2655,41.62972,-70.39263,Osterville,MA,Massachusetts,True,,3100.0,185.0,25001,Barnstable,America/New_York
2657,42.06139,-70.19813,Provincetown,MA,Massachusetts,True,,2972.0,118.7,25001,Barnstable,America/New_York
2659,41.68258,-70.02234,South Chatham,MA,Massachusetts,True,,992.0,193.2,25001,Barnstable,America/New_York
2660,41.70828,-70.15517,South Dennis,MA,Massachusetts,True,,6336.0,292.2,25001,Barnstable,America/New_York
2663,41.90576,-69.989,South Wellfleet,MA,Massachusetts,True,,106.0,14.3,25001,Barnstable,America/New_York
2664,41.67486,-70.19446,South Yarmouth,MA,Massachusetts,True,,8565.0,473.5,25001,Barnstable,America/New_York
2666,41.98817,-70.04603,Truro,MA,Massachusetts,True,,366.0,11.3,25001,Barnstable,America/New_York
2667,41.92937,-70.02074,Wellfleet,MA,Massachusetts,True,,3556.0,81.1,25001,Barnstable,America/New_York
2668,41.70713,-70.36246,West Barnstable,MA,Massachusetts,True,,2696.0,72.7,25001,Barnstable,America/New_York
2670,41.66,-70.17098,West Dennis,MA,Massachusetts,True,,1190.0,216.3,25001,Barnstable,America/New_York
2671,41.66938,-70.11087,West Harwich,MA,Massachusetts,True,,940.0,209.3,25001,Barnstable,America/New_York
2672,41.6357,-70.31878,West Hyannisport,MA,Massachusetts,True,,261.0,204.1,25001,Barnstable,America/New_York
2673,41.6557,-70.24447,West Yarmouth,MA,Massachusetts,True,,8875.0,369.6,25001,Barnstable,America/New_York
2675,41.70401,-70.22883,Yarmouth Port,MA,Massachusetts,True,,6392.0,281.6,25001,Barnstable,America/New_York
2702,41.78452,-71.06112,Assonet,MA,Massachusetts,True,,4450.0,102.3,25005,Bristol,America/New_York
2703,41.93108,-71.29499,Attleboro,MA,Massachusetts,True,,45023.0,649.5,25005,Bristol,America/New_York
2713,41.42818,-70.89102,Cuttyhunk,MA,Massachusetts,True,,37.0,4.0,25007,Dukes,America/New_York
2715,41.81681,-71.15064,Dighton,MA,Massachusetts,True,,3934.0,135.9,25005,Bristol,America/New_York
2717,41.75405,-70.98312,East Freetown,MA,Massachusetts,True,,4914.0,85.5,25005,Bristol,America/New_York
2718,41.86902,-71.01128,East Taunton,MA,Massachusetts,True,,6748.0,253.2,25005,Bristol,America/New_York
2719,41.63945,-70.87322,Fairhaven,MA,Massachusetts,True,,16072.0,501.1,25005,Bristol,America/New_York
2720,41.73095,-71.10932,Fall River,MA,Massachusetts,True,,30579.0,895.6,25005,Bristol,America/New_York
2721,41.67451,-71.14869,Fall River,MA,Massachusetts,True,,25826.0,2478.6,25005,Bristol,America/New_York
2723,41.69237,-71.1309,Fall River,MA,Massachusetts,True,,15340.0,3714.1,25005,Bristol,America/New_York
2724,41.68372,-71.17949,Fall River,MA,Massachusetts,True,,17506.0,3752.9,25005,Bristol,America/New_York
2725,41.71253,-71.18426,Somerset,MA,Massachusetts,True,,2647.0,430.6,25005,Bristol,America/New_York
2726,41.76073,-71.14444,Somerset,MA,Massachusetts,True,,15513.0,1083.8,25005,Bristol,America/New_York
2738,41.7092,-70.76362,Marion,MA,Massachusetts,True,,5148.0,140.7,25023,Plymouth,America/New_York
2739,41.6687,-70.81705,Mattapoisett,MA,Massachusetts,True,,6374.0,142.0,25023,Plymouth,America/New_York
2740,41.63802,-70.93839,New Bedford,MA,Massachusetts,True,,43444.0,2918.5,25005,Bristol,America/New_York
2743,41.71323,-70.90054,Acushnet,MA,Massachusetts,True,,10589.0,226.4,25005,Bristol,America/New_York
2744,41.60789,-70.91286,New Bedford,MA,Massachusetts,True,,11695.0,3470.9,25005,Bristol,America/New_York
2745,41.70284,-70.94695,New Bedford,MA,Massachusetts,True,,24836.0,976.5,25005,Bristol,America/New_York
2746,41.66474,-70.945,New Bedford,MA,Massachusetts,True,,15283.0,2071.2,25005,Bristol,America/New_York
2747,41.6577,-71.01202,North Dartmouth,MA,Massachusetts,True,,23051.0,217.1,25005,Bristol,America/New_York
2748,41.56096,-70.97963,South Dartmouth,MA,Massachusetts,True,,11212.0,186.5,25005,Bristol,America/New_York
2760,41.97004,-71.33586,North Attleboro,MA,Massachusetts,True,,27615.0,593.7,25005,Bristol,America/New_York
2762,42.01409,-71.33642,Plainville,MA,Massachusetts,True,,9227.0,324.2,25021,Norfolk,America/New_York
2763,41.96666,-71.30743,Attleboro Falls,MA,Massachusetts,True,,1666.0,717.1,25005,Bristol,America/New_York
2764,41.8562,-71.16022,North Dighton,MA,Massachusetts,True,,3911.0,138.5,25005,Bristol,America/New_York
2766,41.96402,-71.18418,Norton,MA,Massachusetts,True,,19874.0,275.7,25005,Bristol,America/New_York
2767,41.93939,-71.05191,Raynham,MA,Massachusetts,True,,14626.0,228.2,25005,Bristol,America/New_York
2769,41.84394,-71.24559,Rehoboth,MA,Massachusetts,True,,12285.0,101.1,25005,Bristol,America/New_York
2770,41.75875,-70.84048,Rochester,MA,Massachusetts,True,,5461.0,65.2,25023,Plymouth,America/New_York
2771,41.83787,-71.31736,Seekonk,MA,Massachusetts,True,,15613.0,327.8,25005,Bristol,America/New_York
2777,41.75699,-71.21208,Swansea,MA,Massachusetts,True,,16692.0,284.7,25005,Bristol,America/New_York
2779,41.83492,-71.07543,Berkley,MA,Massachusetts,True,,6801.0,159.0,25005,Bristol,America/New_York
2780,41.90743,-71.11939,Taunton,MA,Massachusetts,True,,50299.0,586.3,25005,Bristol,America/New_York
2790,41.59967,-71.08266,Westport,MA,Massachusetts,True,,15879.0,113.8,25005,Bristol,America/New_York
2791,41.52262,-71.08266,Westport Point,MA,Massachusetts,True,,373.0,110.5,25005,Bristol,America/New_York
2802,41.95221,-71.4559,Albion,RI,Rhode Island,True,,501.0,1000.3,44007,Providence,America/New_York
2804,41.43546,-71.77196,Ashaway,RI,Rhode Island,True,,2005.0,65.7,44009,Washington,America/New_York
2806,41.7443,-71.31453,Barrington,RI,Rhode Island,True,,16106.0,759.8,44001,Bristol,America/New_York
2807,41.17762,-71.57854,Block Island,RI,Rhode Island,True,,871.0,37.0,44009,Washington,America/New_York
2808,41.40606,-71.74802,Bradford,RI,Rhode Island,True,,2466.0,125.5,44009,Washington,America/New_York
2809,41.68266,-71.26938,Bristol,RI,Rhode Island,True,,22095.0,871.5,44001,Bristol,America/New_York
2812,41.47625,-71.66094,Carolina,RI,Rhode Island,True,,1300.0,125.7,44009,Washington,America/New_York
2813,41.3971,-71.67003,Charlestown,RI,Rhode Island,True,,7832.0,82.4,44009,Washington,America/New_York
2814,41.89959,-71.69888,Chepachet,RI,Rhode Island,True,,8033.0,71.5,44007,Providence,America/New_York
2815,41.77723,-71.66177,Clayville,RI,Rhode Island,True,,150.0,21.3,44007,Providence,America/New_York
2816,41.69035,-71.61954,Coventry,RI,Rhode Island,True,,32683.0,341.6,44003,Kent,America/New_York
2817,41.6291,-71.66711,West Greenwich,RI,Rhode Island,True,,6297.0,48.3,44003,Kent,America/New_York
2818,41.64214,-71.49307,East Greenwich,RI,Rhode Island,True,,18790.0,341.8,44003,Kent,America/New_York
2822,41.56736,-71.63348,Exeter,RI,Rhode Island,True,,6018.0,42.8,44009,Washington,America/New_York
2823,41.73328,-71.54479,Fiskeville,RI,Rhode Island,True,,,,44007,Providence,America/New_York
2824,41.99934,-71.56322,Forestdale,RI,Rhode Island,True,,,,44007,Providence,America/New_York
2825,41.78212,-71.72596,Foster,RI,Rhode Island,True,,5964.0,41.8,44007,Providence,America/New_York
2826,41.98248,-71.64539,Glendale,RI,Rhode Island,True,,382.0,60.6,44007,Providence,America/New_York
2827,41.69792,-71.73847,Greene,RI,Rhode Island,True,,2194.0,39.5,44003,Kent,America/New_York
2828,41.87672,-71.56065,Greenville,RI,Rhode Island,True,,7528.0,668.8,44007,Providence,America/New_York
2829,41.89377,-71.59129,Harmony,RI,Rhode Island,True,,,,44007,Providence,America/New_York
2830,41.98016,-71.6484,Harrisville,RI,Rhode Island,True,,5624.0,106.4,44007,Providence,America/New_York
2831,41.74461,-71.58442,Hope,RI,Rhode Island,True,,3725.0,133.8,44007,Providence,America/New_York
2832,41.50469,-71.72807,Hope Valley,RI,Rhode Island,True,,4713.0,73.4,44009,Washington,America/New_York
2833,41.48117,-71.77787,Hopkinton,RI,Rhode Island,True,,932.0,102.8,44009,Washington,America/New_York
2835,41.51479,-71.37742,Jamestown,RI,Rhode Island,True,,5494.0,226.4,44005,Newport,America/New_York
2836,41.45145,-71.62027,Kenyon,RI,Rhode Island,True,,165.0,226.1,44009,Washington,America/New_York
2837,41.51524,-71.16455,Little Compton,RI,Rhode Island,True,,3496.0,65.7,44005,Newport,America/New_York
2838,41.96552,-71.47628,Manville,RI,Rhode Island,True,,3521.0,973.2,44007,Providence,America/New_York
2839,41.9433,-71.64581,Mapleville,RI,Rhode Island,True,,2100.0,188.1,44007,Providence,America/New_York
2840,41.47838,-71.31993,Newport,RI,Rhode Island,True,,22976.0,1218.9,44005,Newport,America/New_York
2841,41.51261,-71.32522,Newport,RI,Rhode Island,True,,1792.0,2008.3,44005,Newport,America/New_York
2842,41.51739,-71.27667,Middletown,RI,Rhode Island,True,,15931.0,490.6,44005,Newport,America/New_York
2852,41.58809,-71.46094,North Kingstown,RI,Rhode Island,True,,21653.0,271.2,44009,Washington,America/New_York
2857,41.82705,-71.63083,North Scituate,RI,Rhode Island,True,,7969.0,71.3,44007,Providence,America/New_York
2858,41.96354,-71.64893,Oakland,RI,Rhode Island,True,,613.0,382.8,44007,Providence,America/New_York
2859,41.9665,-71.7464,Pascoag,RI,Rhode Island,True,,7992.0,111.7,44007,Providence,America/New_York
2860,41.87036,-71.38855,Pawtucket,RI,Rhode Island,True,,47175.0,3412.5,44007,Providence,America/New_York
2861,41.87863,-71.35228,Pawtucket,RI,Rhode Island,True,,24764.0,2677.0,44007,Providence,America/New_York
2863,41.89005,-71.39336,Central Falls,RI,Rhode Island,True,,19437.0,6285.9,44007,Providence,America/New_York
2864,41.97025,-71.41978,Cumberland,RI,Rhode Island,True,,34936.0,509.6,44007,Providence,America/New_York
2865,41.91251,-71.44822,Lincoln,RI,Rhode Island,True,,17876.0,419.0,44007,Providence,America/New_York
2871,41.58384,-71.2564,Portsmouth,RI,Rhode Island,True,,17108.0,387.0,44005,Newport,America/New_York
2872,41.61718,-71.32886,Prudence Island,RI,Rhode Island,True,,204.0,13.2,44005,Newport,America/New_York
2873,41.5257,-71.77734,Rockville,RI,Rhode Island,True,,130.0,13.4,44009,Washington,America/New_York
2874,41.51543,-71.46985,Saunderstown,RI,Rhode Island,True,,6620.0,164.2,44009,Washington,America/New_York
2875,41.46052,-71.63848,Shannock,RI,Rhode Island,True,,439.0,95.4,44009,Washington,America/New_York
2876,41.99801,-71.58301,Slatersville,RI,Rhode Island,True,,577.0,1118.3,44007,Providence,America/New_York
2878,41.60905,-71.17413,Tiverton,RI,Rhode Island,True,,15730.0,209.0,44005,Newport,America/New_York
2879,41.42865,-71.53837,Wakefield,RI,Rhode Island,True,,20851.0,203.8,44009,Washington,America/New_York
2881,41.4825,-71.52694,Kingston,RI,Rhode Island,True,,7593.0,870.4,44009,Washington,America/New_York
2882,41.4253,-71.46816,Narragansett,RI,Rhode Island,True,,14204.0,427.1,44009,Washington,America/New_York
2885,41.72821,-71.26287,Warren,RI,Rhode Island,True,,10451.0,655.2,44001,Bristol,America/New_York
2886,41.70493,-71.45892,Warwick,RI,Rhode Island,True,,29443.0,719.7,44003,Kent,America/New_York
2888,41.74909,-71.41123,Warwick,RI,Rhode Island,True,,17901.0,1172.1,44003,Kent,America/New_York
2889,41.70602,-71.39106,Warwick,RI,Rhode Island,True,,27531.0,1257.1,44003,Kent,America/New_York
2891,41.36043,-71.79429,Westerly,RI,Rhode Island,True,,21196.0,311.4,44009,Washington,America/New_York
2892,41.50226,-71.60174,West Kingston,RI,Rhode Island,True,,5502.0,78.1,44009,Washington,America/New_York
2893,41.69856,-71.51566,West Warwick,RI,Rhode Island,True,,29283.0,1443.5,44003,Kent,America/New_York
2894,41.44761,-71.69759,Wood River Junction,RI,Rhode Island,True,,512.0,47.0,44009,Washington,America/New_York
2895,42.00103,-71.49923,Woonsocket,RI,Rhode Island,True,,41616.0,2069.6,44007,Providence,America/New_York
2896,41.97285,-71.55027,North Smithfield,RI,Rhode Island,True,,11901.0,199.6,44007,Providence,America/New_York
2898,41.52184,-71.67166,Wyoming,RI,Rhode Island,True,,1137.0,36.9,44009,Washington,America/New_York
2903,41.81902,-71.41003,Providence,RI,Rhode Island,True,,11443.0,2632.9,44007,Providence,America/New_York
2904,41.86058,-71.43539,Providence,RI,Rhode Island,True,,29881.0,2228.8,44007,Providence,America/New_York
2905,41.78769,-71.39886,Providence,RI,Rhode Island,True,,26020.0,2683.0,44007,Providence,America/New_York
2906,41.83964,-71.38963,Providence,RI,Rhode Island,True,,28254.0,3519.9,44007,Providence,America/New_York
2907,41.79867,-71.42581,Providence,RI,Rhode Island,True,,31277.0,5470.0,44007,Providence,America/New_York
2908,41.83877,-71.43926,Providence,RI,Rhode Island,True,,37792.0,4289.0,44007,Providence,America/New_York
2909,41.81825,-71.45078,Providence,RI,Rhode Island,True,,40286.0,4969.1,44007,Providence,America/New_York
2910,41.77552,-71.43564,Cranston,RI,Rhode Island,True,,21746.0,2445.6,44007,Providence,America/New_York
2911,41.85467,-71.47325,North Providence,RI,Rhode Island,True,,15627.0,2413.8,44007,Providence,America/New_York
2912,41.82783,-71.39959,Providence,RI,Rhode Island,True,,1279.0,2494.4,44007,Providence,America/New_York
2914,41.81326,-71.36608,East Providence,RI,Rhode Island,True,,21720.0,1709.0,44007,Providence,America/New_York
2915,41.77725,-71.34906,Riverside,RI,Rhode Island,True,,16423.0,1150.4,44007,Providence,America/New_York
2916,41.84438,-71.35258,Rumford,RI,Rhode Island,True,,9292.0,1352.2,44007,Providence,America/New_York
2917,41.90615,-71.52365,Smithfield,RI,Rhode Island,True,,14260.0,256.8,44007,Providence,America/New_York
2918,41.84386,-71.43499,Providence,RI,Rhode Island,True,,,,44007,Providence,America/New_York
2919,41.82733,-71.52002,Johnston,RI,Rhode Island,True,,29312.0,481.4,44007,Providence,America/New_York
2920,41.76719,-71.4655,Cranston,RI,Rhode Island,True,,36695.0,1583.4,44007,Providence,America/New_York
2921,41.76292,-71.51571,Cranston,RI,Rhode Island,True,,12463.0,369.5,44007,Providence,America/New_York
3031,42.87056,-71.60683,Amherst,NH,New Hampshire,True,,11484.0,130.7,33011,Hillsborough,America/New_York
3032,42.99063,-71.34383,Auburn,NH,New Hampshire,True,,5514.0,84.0,33015,Rockingham,America/New_York
3033,42.74643,-71.67054,Brookline,NH,New Hampshire,True,,5394.0,105.0,33011,Hillsborough,America/New_York
3034,43.06269,-71.31106,Candia,NH,New Hampshire,True,,4088.0,48.6,33015,Rockingham,America/New_York
3036,42.96719,-71.25083,Chester,NH,New Hampshire,True,,5191.0,77.0,33015,Rockingham,America/New_York
3037,43.1395,-71.2535,Deerfield,NH,New Hampshire,True,,4363.0,34.6,33015,Rockingham,America/New_York
3038,42.88867,-71.27932,Derry,NH,New Hampshire,True,,33705.0,363.0,33015,Rockingham,America/New_York
3042,43.05009,-71.07467,Epping,NH,New Hampshire,True,,6989.0,103.6,33015,Rockingham,America/New_York
3043,42.99581,-71.81514,Francestown,NH,New Hampshire,True,,1574.0,20.4,33011,Hillsborough,America/New_York
3044,42.98899,-71.12494,Fremont,NH,New Hampshire,True,,4695.0,105.6,33015,Rockingham,America/New_York
3045,43.01994,-71.57035,Goffstown,NH,New Hampshire,True,,13766.0,148.0,33011,Hillsborough,America/New_York
3046,43.10178,-71.60548,Dunbarton,NH,New Hampshire,True,,2846.0,35.6,33013,Merrimack,America/New_York
3047,42.94029,-71.87053,Greenfield,NH,New Hampshire,True,,1828.0,26.8,33011,Hillsborough,America/New_York
3048,42.74668,-71.76268,Greenville,NH,New Hampshire,True,,3564.0,48.6,33011,Hillsborough,America/New_York
3049,42.7494,-71.58338,Hollis,NH,New Hampshire,True,,7973.0,97.0,33011,Hillsborough,America/New_York
3051,42.76394,-71.40716,Hudson,NH,New Hampshire,True,,25543.0,348.7,33011,Hillsborough,America/New_York
3052,42.84302,-71.455,Litchfield,NH,New Hampshire,True,,8560.0,221.5,33011,Hillsborough,America/New_York
3053,42.87927,-71.38702,Londonderry,NH,New Hampshire,True,,26028.0,241.2,33015,Rockingham,America/New_York
3054,42.85471,-71.51878,Merrimack,NH,New Hampshire,True,,26314.0,311.9,33011,Hillsborough,America/New_York
3055,42.81783,-71.67361,Milford,NH,New Hampshire,True,,15906.0,241.7,33011,Hillsborough,America/New_York
3057,42.90265,-71.6861,Mont Vernon,NH,New Hampshire,True,,2662.0,57.4,33011,Hillsborough,America/New_York
3060,42.74135,-71.45936,Nashua,NH,New Hampshire,True,,30092.0,1771.4,33011,Hillsborough,America/New_York
3062,42.72212,-71.49556,Nashua,NH,New Hampshire,True,,28550.0,916.4,33011,Hillsborough,America/New_York
3063,42.7795,-71.51939,Nashua,NH,New Hampshire,True,,16126.0,767.7,33011,Hillsborough,America/New_York
3064,42.77886,-71.47466,Nashua,NH,New Hampshire,True,,14284.0,1333.9,33011,Hillsborough,America/New_York
3070,42.97702,-71.68664,New Boston,NH,New Hampshire,True,,5781.0,51.8,33011,Hillsborough,America/New_York
3071,42.74892,-71.8747,New Ipswich,NH,New Hampshire,True,,5373.0,63.4,33011,Hillsborough,America/New_York
3076,42.73354,-71.324,Pelham,NH,New Hampshire,True,,13991.0,205.1,33011,Hillsborough,America/New_York
3077,43.03219,-71.19945,Raymond,NH,New Hampshire,True,,10407.0,139.4,33015,Rockingham,America/New_York
3079,42.79023,-71.22024,Salem,NH,New Hampshire,True,,29633.0,460.5,33015,Rockingham,America/New_York
3082,42.90197,-71.77545,Lyndeborough,NH,New Hampshire,True,,1706.0,22.8,33011,Hillsborough,America/New_York
3084,42.82856,-71.85495,Temple,NH,New Hampshire,True,,1250.0,21.7,33011,Hillsborough,America/New_York
3086,42.82741,-71.76967,Wilton,NH,New Hampshire,True,,3915.0,53.8,33011,Hillsborough,America/New_York
3087,42.80758,-71.29945,Windham,NH,New Hampshire,True,,14694.0,212.1,33015,Rockingham,America/New_York
3101,42.98881,-71.4659,Manchester,NH,New Hampshire,True,,2834.0,1429.8,33011,Hillsborough,America/New_York
3102,43.00797,-71.49134,Manchester,NH,New Hampshire,True,,33951.0,1446.0,33011,Hillsborough,America/New_York
3103,42.95536,-71.44463,Manchester,NH,New Hampshire,True,,36831.0,1547.9,33011,Hillsborough,America/New_York
3104,43.00926,-71.4411,Manchester,NH,New Hampshire,True,,32776.0,1518.3,33011,Hillsborough,America/New_York
3106,43.07097,-71.43651,Hooksett,NH,New Hampshire,True,,14375.0,154.1,33013,Merrimack,America/New_York
3109,42.96594,-71.40167,Manchester,NH,New Hampshire,True,,10409.0,554.6,33011,Hillsborough,America/New_York
3110,42.94065,-71.53023,Bedford,NH,New Hampshire,True,,22710.0,267.5,33011,Hillsborough,America/New_York
3215,44.03605,-71.48109,Waterville Valley,NH,New Hampshire,True,,230.0,0.5,33009,Grafton,America/New_York
3216,43.44656,-71.79374,Andover,NH,New Hampshire,True,,2494.0,24.1,33013,Merrimack,America/New_York
3217,43.71492,-71.63033,Ashland,NH,New Hampshire,True,,2237.0,76.9,33009,Grafton,America/New_York
3218,43.33465,-71.28803,Barnstead,NH,New Hampshire,True,,1070.0,27.0,33001,Belknap,America/New_York
3220,43.46793,-71.4758,Belmont,NH,New Hampshire,True,,7566.0,96.5,33001,Belknap,America/New_York
3221,43.25482,-71.96122,Bradford,NH,New Hampshire,True,,1922.0,15.2,33013,Merrimack,America/New_York
3222,43.62895,-71.78234,Bristol,NH,New Hampshire,True,,5895.0,31.9,33009,Grafton,America/New_York
3223,43.84784,-71.67597,Campton,NH,New Hampshire,True,,3382.0,18.7,33009,Grafton,America/New_York
3224,43.35171,-71.54691,Canterbury,NH,New Hampshire,True,,2402.0,21.7,33013,Merrimack,America/New_York
3225,43.36001,-71.23828,Center Barnstead,NH,New Hampshire,True,,3573.0,49.7,33001,Belknap,America/New_York
3226,43.70259,-71.51086,Center Harbor,NH,New Hampshire,True,,881.0,24.8,33001,Belknap,America/New_York
3227,43.81419,-71.45712,Center Sandwich,NH,New Hampshire,True,,1126.0,8.5,33003,Carroll,America/New_York
3229,43.19792,-71.69677,Contoocook,NH,New Hampshire,True,,5746.0,51.2,33013,Merrimack,America/New_York
3230,43.52685,-71.8622,Danbury,NH,New Hampshire,True,,1445.0,13.9,33013,Merrimack,America/New_York
3231,43.45555,-71.75551,East Andover,NH,New Hampshire,True,,226.0,304.9,33013,Merrimack,America/New_York
3233,43.42325,-71.93322,Elkins,NH,New Hampshire,True,,334.0,290.3,33013,Merrimack,America/New_York
3234,43.21484,-71.33914,Epsom,NH,New Hampshire,True,,4767.0,53.5,33013,Merrimack,America/New_York
3235,43.44831,-71.67208,Franklin,NH,New Hampshire,True,,8793.0,113.8,33013,Merrimack,America/New_York
3237,43.42997,-71.38233,Gilmanton,NH,New Hampshire,True,,2082.0,21.2,33001,Belknap,America/New_York
3238,43.98168,-71.88701,Glencliff,NH,New Hampshire,True,,95.0,36.6,33009,Grafton,America/New_York
3240,43.57599,-71.97221,Grafton,NH,New Hampshire,True,,1293.0,12.0,33009,Grafton,America/New_York
3241,43.71149,-71.81915,Hebron,NH,New Hampshire,True,,908.0,9.5,33009,Grafton,America/New_York
3242,43.17365,-71.8224,Henniker,NH,New Hampshire,True,,4966.0,43.5,33013,Merrimack,America/New_York
3243,43.5276,-71.7644,Hill,NH,New Hampshire,True,,809.0,12.2,33013,Merrimack,America/New_York
3244,43.11822,-71.9192,Hillsborough,NH,New Hampshire,True,,7589.0,35.5,33011,Hillsborough,America/New_York
3245,43.75026,-71.58852,Holderness,NH,New Hampshire,True,,2093.0,26.5,33009,Grafton,America/New_York
3246,43.57239,-71.4775,Laconia,NH,New Hampshire,True,,16573.0,322.0,33001,Belknap,America/New_York
3249,43.55806,-71.38505,Gilford,NH,New Hampshire,True,,7213.0,71.8,33001,Belknap,America/New_York
3251,44.0796,-71.65276,Lincoln,NH,New Hampshire,True,,1270.0,7.4,33009,Grafton,America/New_York
3253,43.63193,-71.49749,Meredith,NH,New Hampshire,True,,6410.0,66.1,33001,Belknap,America/New_York
3254,43.72505,-71.37782,Moultonborough,NH,New Hampshire,True,,4149.0,26.6,33003,Carroll,America/New_York
3255,43.3149,-72.02795,Newbury,NH,New Hampshire,True,,1852.0,20.0,33013,Merrimack,America/New_York
3256,43.62425,-71.63514,New Hampton,NH,New Hampshire,True,,2450.0,25.7,33001,Belknap,America/New_York
3257,43.41768,-71.99101,New London,NH,New Hampshire,True,,4179.0,68.5,33013,Merrimack,America/New_York
3258,43.25744,-71.39956,Chichester,NH,New Hampshire,True,,2689.0,49.0,33013,Merrimack,America/New_York
3259,43.87921,-71.44527,North Sandwich,NH,New Hampshire,True,,407.0,4.7,33003,Carroll,America/New_York
3260,43.36016,-71.92457,North Sutton,NH,New Hampshire,True,,1012.0,18.2,33013,Merrimack,America/New_York
3261,43.21322,-71.20966,Northwood,NH,New Hampshire,True,,4337.0,59.4,33015,Rockingham,America/New_York
3262,43.99885,-71.73813,North Woodstock,NH,New Hampshire,True,,1170.0,7.9,33009,Grafton,America/New_York
3263,43.29483,-71.31133,Pittsfield,NH,New Hampshire,True,,4114.0,64.9,33013,Merrimack,America/New_York
3264,43.72967,-71.71159,Plymouth,NH,New Hampshire,True,,7249.0,76.6,33009,Grafton,America/New_York
3266,43.79407,-71.89035,Rumney,NH,New Hampshire,True,,2023.0,7.1,33009,Grafton,America/New_York
3268,43.38505,-71.7574,Salisbury,NH,New Hampshire,True,,1452.0,18.2,33013,Merrimack,America/New_York
3269,43.53,-71.60219,Sanbornton,NH,New Hampshire,True,,2920.0,22.8,33001,Belknap,America/New_York
3273,43.30337,-71.92413,South Sutton,NH,New Hampshire,True,,357.0,29.8,33013,Merrimack,America/New_York
3275,43.15999,-71.41794,Suncook,NH,New Hampshire,True,,11652.0,104.5,33013,Merrimack,America/New_York
3276,43.42783,-71.57514,Tilton,NH,New Hampshire,True,,8289.0,81.4,33013,Merrimack,America/New_York
3278,43.29313,-71.82934,Warner,NH,New Hampshire,True,,2978.0,18.1,33013,Merrimack,America/New_York
3279,43.94468,-71.88231,Warren,NH,New Hampshire,True,,639.0,5.2,33009,Grafton,America/New_York
3280,43.18339,-72.08979,Washington,NH,New Hampshire,True,,1057.0,9.0,33019,Sullivan,America/New_York
3281,43.08126,-71.72189,Weare,NH,New Hampshire,True,,9058.0,59.2,33011,Hillsborough,America/New_York
3282,43.86006,-71.9295,Wentworth,NH,New Hampshire,True,,1089.0,10.1,33009,Grafton,America/New_York
3284,43.49361,-72.03057,Springfield,NH,New Hampshire,True,,996.0,10.0,33019,Sullivan,America/New_York
3285,43.92408,-71.64359,Thornton,NH,New Hampshire,True,,2516.0,19.4,33009,Grafton,America/New_York
3287,43.45168,-71.91795,Wilmot,NH,New Hampshire,True,,1444.0,19.0,33013,Merrimack,America/New_York
3290,43.12391,-71.12089,Nottingham,NH,New Hampshire,True,,5036.0,42.0,33015,Rockingham,America/New_York
3291,43.17976,-71.14205,West Nottingham,NH,New Hampshire,True,,92.0,161.3,33015,Rockingham,America/New_York
3293,43.97696,-71.67721,Woodstock,NH,New Hampshire,True,,156.0,41.6,33009,Grafton,America/New_York
3301,43.22423,-71.54342,Concord,NH,New Hampshire,True,,33550.0,263.1,33013,Merrimack,America/New_York
3303,43.29819,-71.67186,Concord,NH,New Hampshire,True,,15984.0,91.0,33013,Merrimack,America/New_York
3304,43.13078,-71.53066,Bow,NH,New Hampshire,True,,7958.0,109.1,33013,Merrimack,America/New_York
3307,43.32257,-71.44265,Loudon,NH,New Hampshire,True,,5591.0,46.0,33013,Merrimack,America/New_York
3431,42.96785,-72.29862,Keene,NH,New Hampshire,True,,24849.0,160.0,33005,Cheshire,America/New_York
3440,43.06023,-71.97446,Antrim,NH,New Hampshire,True,,3036.0,37.5,33011,Hillsborough,America/New_York
3441,42.77737,-72.44263,Ashuelot,NH,New Hampshire,True,,163.0,14.6,33005,Cheshire,America/New_York
3442,43.01268,-71.90781,Bennington,NH,New Hampshire,True,,1684.0,57.0,33011,Hillsborough,America/New_York
3443,42.8767,-72.46148,Chesterfield,NH,New Hampshire,True,,235.0,8.4,33005,Cheshire,America/New_York
3444,42.89403,-72.07178,Dublin,NH,New Hampshire,True,,1553.0,21.7,33005,Cheshire,America/New_York
3445,43.01555,-72.2137,Sullivan,NH,New Hampshire,True,,700.0,13.9,33005,Cheshire,America/New_York
3446,42.86163,-72.29639,Swanzey,NH,New Hampshire,True,,6375.0,55.5,33005,Cheshire,America/New_York
3447,42.7592,-72.14794,Fitzwilliam,NH,New Hampshire,True,,2324.0,25.9,33005,Cheshire,America/New_York
3448,43.03996,-72.26448,Gilsum,NH,New Hampshire,True,,749.0,17.4,33005,Cheshire,America/New_York
3449,42.98222,-72.00037,Hancock,NH,New Hampshire,True,,1715.0,18.9,33011,Hillsborough,America/New_York
3450,42.94157,-72.09107,Harrisville,NH,New Hampshire,True,,882.0,18.4,33005,Cheshire,America/New_York
3451,42.80907,-72.50029,Hinsdale,NH,New Hampshire,True,,3905.0,73.5,33005,Cheshire,America/New_York
3452,42.82922,-72.05962,Jaffrey,NH,New Hampshire,True,,5275.0,53.0,33005,Cheshire,America/New_York
3455,42.89816,-72.18308,Marlborough,NH,New Hampshire,True,,2524.0,41.0,33005,Cheshire,America/New_York
3456,43.13092,-72.21505,Marlow,NH,New Hampshire,True,,788.0,11.7,33005,Cheshire,America/New_York
3457,43.00282,-72.12933,Nelson,NH,New Hampshire,True,,709.0,9.3,33005,Cheshire,America/New_York
3458,42.86906,-71.93797,Peterborough,NH,New Hampshire,True,,7111.0,51.1,33011,Hillsborough,America/New_York
3461,42.75234,-72.01071,Rindge,NH,New Hampshire,True,,6100.0,63.5,33005,Cheshire,America/New_York
3462,42.8949,-72.40507,Spofford,NH,New Hampshire,True,,1388.0,27.7,33005,Cheshire,America/New_York
3464,43.08256,-72.11085,Stoddard,NH,New Hampshire,True,,977.0,8.4,33005,Cheshire,America/New_York
3465,42.82677,-72.18988,Troy,NH,New Hampshire,True,,1734.0,38.3,33005,Cheshire,America/New_York
3466,42.89525,-72.50964,West Chesterfield,NH,New Hampshire,True,,2002.0,50.0,33005,Cheshire,America/New_York
3467,42.96894,-72.43203,Westmoreland,NH,New Hampshire,True,,2023.0,21.8,33005,Cheshire,America/New_York
3470,42.77869,-72.34413,Winchester,NH,New Hampshire,True,,5138.0,22.5,33005,Cheshire,America/New_York
3561,44.33222,-71.80973,Littleton,NH,New Hampshire,True,,5920.0,45.8,33009,Grafton,America/New_York
3570,44.49953,-71.20396,Berlin,NH,New Hampshire,True,,10025.0,28.2,33007,Coos,America/New_York
3574,44.25386,-71.59924,Bethlehem,NH,New Hampshire,True,,2591.0,11.0,33009,Grafton,America/New_York
3575,44.28946,-71.41722,Bretton Woods,NH,New Hampshire,True,,52.0,0.6,33007,Coos,America/New_York
3576,44.89839,-71.37178,Colebrook,NH,New Hampshire,True,,2718.0,6.2,33007,Coos,America/New_York
3579,44.95234,-71.04182,Errol,NH,New Hampshire,True,,341.0,0.2,23017,Oxford,America/New_York
3580,44.17347,-71.69519,Franconia,NH,New Hampshire,True,,1419.0,6.2,33009,Grafton,America/New_York
3581,44.34227,-71.13413,Gorham,NH,New Hampshire,True,,3190.0,7.9,33007,Coos,America/New_York
3582,44.59777,-71.43703,Groveton,NH,New Hampshire,True,,2077.0,9.7,33007,Coos,America/New_York
3583,44.40148,-71.4583,Jefferson,NH,New Hampshire,True,,942.0,6.5,33007,Coos,America/New_York
3584,44.48696,-71.54278,Lancaster,NH,New Hampshire,True,,3570.0,22.2,33007,Coos,America/New_York
3585,44.22538,-71.89703,Lisbon,NH,New Hampshire,True,,2556.0,12.6,33009,Grafton,America/New_York
3586,44.22058,-71.7963,Sugar Hill,NH,New Hampshire,True,,605.0,14.0,33009,Grafton,America/New_York
3588,44.60545,-71.23204,Milan,NH,New Hampshire,True,,1535.0,5.3,33007,Coos,America/New_York
3590,44.74195,-71.51485,North Stratford,NH,New Hampshire,True,,1173.0,4.1,33007,Coos,America/New_York
3592,45.1128,-71.25493,Pittsburg,NH,New Hampshire,True,,1147.0,1.2,33007,Coos,America/New_York
3593,44.29816,-71.31774,Randolph,NH,New Hampshire,True,,384.0,1.1,33007,Coos,America/New_York
3595,44.30616,-71.527,Twin Mountain,NH,New Hampshire,True,,721.0,7.6,33007,Coos,America/New_York
3597,44.73439,-71.38243,West Stewartstown,NH,New Hampshire,True,,490.0,4.2,33007,Coos,America/New_York
3598,44.37998,-71.63179,Whitefield,NH,New Hampshire,True,,3173.0,20.0,33007,Coos,America/New_York
3601,43.23933,-72.29855,Acworth,NH,New Hampshire,True,,602.0,14.9,33019,Sullivan,America/New_York
3602,43.13751,-72.32938,Alstead,NH,New Hampshire,True,,2277.0,14.3,33005,Cheshire,America/New_York
3603,43.25339,-72.38059,Charlestown,NH,New Hampshire,True,,5357.0,46.7,33019,Sullivan,America/New_York
3604,43.13232,-72.38984,Drewsville,NH,New Hampshire,True,,117.0,873.6,33005,Cheshire,America/New_York
3605,43.22815,-72.18032,Lempster,NH,New Hampshire,True,,809.0,9.9,33019,Sullivan,America/New_York
3607,43.19698,-72.26084,South Acworth,NH,New Hampshire,True,,338.0,8.0,33019,Sullivan,America/New_York
3608,43.07128,-72.40604,Walpole,NH,New Hampshire,True,,3314.0,37.3,33005,Cheshire,America/New_York
3609,43.1441,-72.44512,North Walpole,NH,New Hampshire,True,,560.0,240.8,33005,Cheshire,America/New_York
3740,44.18025,-71.98626,Bath,NH,New Hampshire,True,,762.0,7.9,33009,Grafton,America/New_York
3741,43.67134,-72.01559,Canaan,NH,New Hampshire,True,,4115.0,20.8,33009,Grafton,America/New_York
3743,43.36026,-72.32489,Claremont,NH,New Hampshire,True,,13659.0,89.2,33019,Sullivan,America/New_York
3745,43.47407,-72.32001,Cornish,NH,New Hampshire,True,,1480.0,13.6,33019,Sullivan,America/New_York
3748,43.60207,-72.11713,Enfield,NH,New Hampshire,True,,4769.0,39.3,33009,Grafton,America/New_York
3750,43.70681,-72.19308,Etna,NH,New Hampshire,True,,1059.0,25.9,33009,Grafton,America/New_York
3751,43.44363,-72.08394,Georges Mills,NH,New Hampshire,True,,638.0,123.2,33019,Sullivan,America/New_York
3752,43.28909,-72.11489,Goshen,NH,New Hampshire,True,,964.0,16.7,33019,Sullivan,America/New_York
3753,43.51534,-72.14798,Grantham,NH,New Hampshire,True,,2878.0,39.4,33019,Sullivan,America/New_York
3755,43.72377,-72.19563,Hanover,NH,New Hampshire,True,,10466.0,138.4,33009,Grafton,America/New_York
3765,44.03452,-72.05231,Haverhill,NH,New Hampshire,True,,576.0,48.3,33009,Grafton,America/New_York
3766,43.63491,-72.23819,Lebanon,NH,New Hampshire,True,,9643.0,116.4,33009,Grafton,America/New_York
3768,43.80529,-72.11573,Lyme,NH,New Hampshire,True,,1713.0,12.3,33009,Grafton,America/New_York
3770,43.5336,-72.26469,Meriden,NH,New Hampshire,True,,460.0,40.4,33019,Sullivan,America/New_York
3771,44.28443,-72.0098,Monroe,NH,New Hampshire,True,,939.0,16.2,33009,Grafton,America/New_York
3773,43.38484,-72.19898,Newport,NH,New Hampshire,True,,7636.0,31.3,33019,Sullivan,America/New_York
3774,44.09097,-71.9947,North Haverhill,NH,New Hampshire,True,,1884.0,27.7,33009,Grafton,America/New_York
3777,43.89548,-72.06672,Orford,NH,New Hampshire,True,,1372.0,11.4,33009,Grafton,America/New_York
3779,43.97477,-72.03089,Piermont,NH,New Hampshire,True,,817.0,8.2,33009,Grafton,America/New_York
3780,44.03169,-71.97142,Pike,NH,New Hampshire,True,,586.0,11.4,33009,Grafton,America/New_York
3781,43.5526,-72.28399,Plainfield,NH,New Hampshire,True,,2305.0,18.6,33019,Sullivan,America/New_York
3782,43.38962,-72.09149,Sunapee,NH,New Hampshire,True,,3013.0,57.3,33019,Sullivan,America/New_York
3784,43.63675,-72.30608,West Lebanon,NH,New Hampshire,True,,4126.0,191.4,33009,Grafton,America/New_York
3785,44.06525,-71.87017,Woodsville,NH,New Hampshire,True,,2300.0,14.2,33009,Grafton,America/New_York
3801,43.07293,-70.8052,Portsmouth,NH,New Hampshire,True,,22424.0,364.2,33015,Rockingham,America/New_York
3809,43.45321,-71.21184,Alton,NH,New Hampshire,True,,3830.0,36.9,33001,Belknap,America/New_York
3810,43.52692,-71.27941,Alton Bay,NH,New Hampshire,True,,1501.0,24.6,33001,Belknap,America/New_York
3811,42.83693,-71.16042,Atkinson,NH,New Hampshire,True,,7014.0,243.5,33015,Rockingham,America/New_York
3812,44.08148,-71.29643,Bartlett,NH,New Hampshire,True,,485.0,3.2,33003,Carroll,America/New_York
3813,44.09408,-71.04573,Center Conway,NH,New Hampshire,True,,3044.0,12.0,33003,Carroll,America/New_York
3814,43.77341,-71.18717,Center Ossipee,NH,New Hampshire,True,,2201.0,25.6,33003,Carroll,America/New_York
3816,43.69753,-71.24218,Center Tuftonboro,NH,New Hampshire,True,,1206.0,17.6,33003,Carroll,America/New_York
3817,43.8885,-71.23358,Chocorua,NH,New Hampshire,True,,976.0,46.8,33003,Carroll,America/New_York
3818,43.97302,-71.25261,Conway,NH,New Hampshire,True,,4127.0,18.9,33003,Carroll,America/New_York
3819,42.93012,-71.12197,Danville,NH,New Hampshire,True,,4520.0,158.9,33015,Rockingham,America/New_York
3820,43.18933,-70.88428,Dover,NH,New Hampshire,True,,32046.0,453.5,33017,Strafford,America/New_York
3823,43.17488,-70.94089,Madbury,NH,New Hampshire,True,,2121.0,70.3,33017,Strafford,America/New_York
3824,43.11744,-70.91937,Durham,NH,New Hampshire,True,,16476.0,283.8,33017,Strafford,America/New_York
3825,43.21366,-71.04227,Barrington,NH,New Hampshire,True,,9293.0,76.5,33017,Strafford,America/New_York
3826,42.88878,-71.12881,East Hampstead,NH,New Hampshire,True,,1952.0,220.0,33015,Rockingham,America/New_York
3827,42.90691,-70.98774,East Kingston,NH,New Hampshire,True,,3065.0,66.3,33015,Rockingham,America/New_York
3830,43.63549,-70.99568,East Wakefield,NH,New Hampshire,True,,1567.0,63.9,33003,Carroll,America/New_York
3832,43.90249,-71.04859,Eaton Center,NH,New Hampshire,True,,291.0,4.6,33003,Carroll,America/New_York
3833,42.97464,-70.98885,Exeter,NH,New Hampshire,True,,21901.0,174.4,33015,Rockingham,America/New_York
3835,43.36319,-71.07605,Farmington,NH,New Hampshire,True,,6952.0,73.0,33017,Strafford,America/New_York
3836,43.82608,-71.07118,Freedom,NH,New Hampshire,True,,1304.0,14.5,33003,Carroll,America/New_York
3837,43.42271,-71.32766,Gilmanton Iron Works,NH,New Hampshire,True,,1736.0,33.6,33001,Belknap,America/New_York
3838,44.11257,-71.24036,Glen,NH,New Hampshire,True,,1191.0,20.2,33003,Carroll,America/New_York
3839,43.26256,-70.98254,Rochester,NH,New Hampshire,True,,4022.0,197.3,33017,Strafford,America/New_York
3840,43.03853,-70.84803,Greenland,NH,New Hampshire,True,,4038.0,148.7,33015,Rockingham,America/New_York
3841,42.88148,-71.17856,Hampstead,NH,New Hampshire,True,,6798.0,252.9,33015,Rockingham,America/New_York
3842,42.93941,-70.83697,Hampton,NH,New Hampshire,True,,15787.0,476.9,33015,Rockingham,America/New_York
3844,42.92693,-70.88603,Hampton Falls,NH,New Hampshire,True,,2222.0,69.3,33015,Rockingham,America/New_York
3845,44.10317,-71.1271,Intervale,NH,New Hampshire,True,,1213.0,39.8,33003,Carroll,America/New_York
3846,44.18445,-71.18899,Jackson,NH,New Hampshire,True,,979.0,5.7,33003,Carroll,America/New_York
3847,44.06875,-71.12162,Kearsarge,NH,New Hampshire,True,,376.0,176.9,33003,Carroll,America/New_York
3848,42.91562,-71.06647,Kingston,NH,New Hampshire,True,,6330.0,123.5,33015,Rockingham,America/New_York
3849,43.89454,-71.13101,Madison,NH,New Hampshire,True,,1701.0,29.5,33003,Carroll,America/New_York
3850,43.69739,-71.29983,Melvin Village,NH,New Hampshire,True,,198.0,26.5,33003,Carroll,America/New_York
3851,43.43606,-71.01633,Milton,NH,New Hampshire,True,,4230.0,62.1,33017,Strafford,America/New_York
3852,43.4982,-70.97547,Milton Mills,NH,New Hampshire,True,,416.0,23.8,33017,Strafford,America/New_York
3853,43.63818,-71.29371,Mirror Lake,NH,New Hampshire,True,,673.0,30.1,33003,Carroll,America/New_York
3854,43.06558,-70.72003,New Castle,NH,New Hampshire,True,,863.0,412.1,33015,Rockingham,America/New_York
3855,43.46343,-71.14172,New Durham,NH,New Hampshire,True,,2801.0,26.2,33017,Strafford,America/New_York
3856,43.03916,-70.96627,Newfields,NH,New Hampshire,True,,1984.0,108.0,33015,Rockingham,America/New_York
3857,43.0691,-70.95164,Newmarket,NH,New Hampshire,True,,9161.0,280.9,33015,Rockingham,America/New_York
3858,42.86839,-71.04357,Newton,NH,New Hampshire,True,,4930.0,194.0,33015,Rockingham,America/New_York
3860,44.0427,-71.12422,North Conway,NH,New Hampshire,True,,4061.0,67.5,33003,Carroll,America/New_York
